[
  {
    "stop_id": "AA010",
    "stop_code": 8767,
    "stop_name": "SUSSEX / RIDEAU FALLS",
    "stop_desc": "",
    "stop_lat": 45.439879,
    "stop_lon": -75.695844,
    "zone_id": "",
    "stop_url": "",
    "location_type": 0
  },
  {
    "stop_id": "AA020",
    "stop_code": 6859,
    "stop_name": "SUSSEX / RIDEAU FALLS",
    "stop_desc": "",
    "stop_lat": 45.439581,
    "stop_lon": -75.695695,
    "zone_id": "",
    "stop_url": "",
    "location_type": 0
  },
  {
    "stop_id": "AA030",
    "stop_code": 7001,
    "stop_name": "SUSSEX / ALEXANDER",
    "stop_desc": "",
    "stop_lat": 45.442868,
    "stop_lon": -75.693564,
    "zone_id": "",
    "stop_url": "",
    "location_type": 0
  },
  {
    "stop_id": "AA035",
    "stop_code": 8762,
    "stop_name": "ALEXANDER / THOMAS",
    "stop_desc": "",
    "stop_lat": 45.442806,
    "stop_lon": -75.692325,
    "zone_id": "",
    "stop_url": "",
    "location_type": 0
  },
  {
    "stop_id": "AA040",
    "stop_code": 7000,
    "stop_name": "JOHN / SUSSEX",
    "stop_desc": "",
    "stop_lat": 45.442562,
    "stop_lon": -75.693505,
    "zone_id": "",
    "stop_url": "",
    "location_type": 0
  },
  {
    "stop_id": "AA050",
    "stop_code": 7002,
    "stop_name": "ALEXANDER / CHARLES",
    "stop_desc": "",
    "stop_lat": 45.442539,
    "stop_lon": -75.691511,
    "zone_id": "",
    "stop_url": "",
    "location_type": 0
  },
  {
    "stop_id": "AA060",
    "stop_code": 8766,
    "stop_name": "CRICHTON / CHARLES",
    "stop_desc": "",
    "stop_lat": 45.442231,
    "stop_lon": -75.691221,
    "zone_id": "",
    "stop_url": "",
    "location_type": 0
  },
  {
    "stop_id": "AA070",
    "stop_code": 7003,
    "stop_name": "CRICHTON / UNION",
    "stop_desc": "",
    "stop_lat": 45.441682,
    "stop_lon": -75.689964,
    "zone_id": "",
    "stop_url": "",
    "location_type": 0
  },
  {
    "stop_id": "AA080",
    "stop_code": 7005,
    "stop_name": "CRICHTON / UNION",
    "stop_desc": "",
    "stop_lat": 45.441715,
    "stop_lon": -75.689529,
    "zone_id": "",
    "stop_url": "",
    "location_type": 0
  },
  {
    "stop_id": "AA090",
    "stop_code": 7004,
    "stop_name": "CRICHTON / VICTORIA",
    "stop_desc": "",
    "stop_lat": 45.441148,
    "stop_lon": -75.688271,
    "zone_id": "",
    "stop_url": "",
    "location_type": 0
  },
  {
    "stop_id": "AA100",
    "stop_code": 7006,
    "stop_name": "CRICHTON / VICTORIA",
    "stop_desc": "",
    "stop_lat": 45.441173,
    "stop_lon": -75.687939,
    "zone_id": "",
    "stop_url": "",
    "location_type": 0
  },
  {
    "stop_id": "AA110",
    "stop_code": 7007,
    "stop_name": "CRICHTON / KEEFER",
    "stop_desc": "",
    "stop_lat": 45.440741,
    "stop_lon": -75.686615,
    "zone_id": "",
    "stop_url": "",
    "location_type": 0
  },
  {
    "stop_id": "AA120",
    "stop_code": 8763,
    "stop_name": "CRICHTON / KEEFER",
    "stop_desc": "",
    "stop_lat": 45.440399,
    "stop_lon": -75.685756,
    "zone_id": "",
    "stop_url": "",
    "location_type": 0
  },
  {
    "stop_id": "AA130",
    "stop_code": 7008,
    "stop_name": "CRICHTON / DUFFERIN",
    "stop_desc": "",
    "stop_lat": 45.43959,
    "stop_lon": -75.682989,
    "zone_id": "",
    "stop_url": "",
    "location_type": 0
  },
  {
    "stop_id": "AA140",
    "stop_code": 8765,
    "stop_name": "CRICHTON / THE MEWS",
    "stop_desc": "",
    "stop_lat": 45.43965,
    "stop_lon": -75.682643,
    "zone_id": "",
    "stop_url": "",
    "location_type": 0
  },
  {
    "stop_id": "AA150",
    "stop_code": 7010,
    "stop_name": "CRICHTON / ELECTRIC",
    "stop_desc": "",
    "stop_lat": 45.439091,
    "stop_lon": -75.679954,
    "zone_id": "",
    "stop_url": "",
    "location_type": 0
  },
  {
    "stop_id": "AA160",
    "stop_code": 7009,
    "stop_name": "CRICHTON / ELECTRIC",
    "stop_desc": "",
    "stop_lat": 45.438893,
    "stop_lon": -75.67988,
    "zone_id": "",
    "stop_url": "",
    "location_type": 0
  },
  {
    "stop_id": "AA170",
    "stop_code": 8764,
    "stop_name": "CRICHTON / BEECHWOOD",
    "stop_desc": "",
    "stop_lat": 45.438612,
    "stop_lon": -75.678427,
    "zone_id": "",
    "stop_url": "",
    "location_type": 0
  },
  {
    "stop_id": "AA180",
    "stop_code": 7011,
    "stop_name": "CRICHTON / BEECHWOOD",
    "stop_desc": "",
    "stop_lat": 45.438766,
    "stop_lon": -75.678514,
    "zone_id": "",
    "stop_url": "",
    "location_type": 0
  },
  {
    "stop_id": "AA210",
    "stop_code": 8922,
    "stop_name": "BEECHWOOD / MACKAY",
    "stop_desc": "",
    "stop_lat": 45.439564,
    "stop_lon": -75.676854,
    "zone_id": "",
    "stop_url": "",
    "location_type": 0
  },
  {
    "stop_id": "AA221",
    "stop_code": 8794,
    "stop_name": "BEECHWOOD / LOYER",
    "stop_desc": "",
    "stop_lat": 45.440034,
    "stop_lon": -75.675744,
    "zone_id": "",
    "stop_url": "",
    "location_type": 0
  },
  {
    "stop_id": "AA231",
    "stop_code": 8795,
    "stop_name": "BEECHWOOD / ST CHARLES",
    "stop_desc": "",
    "stop_lat": 45.441164,
    "stop_lon": -75.673624,
    "zone_id": "",
    "stop_url": "",
    "location_type": 0
  },
  {
    "stop_id": "AA240",
    "stop_code": 8790,
    "stop_name": "BEECHWOOD / ST CHARLES",
    "stop_desc": "",
    "stop_lat": 45.441154,
    "stop_lon": -75.674057,
    "zone_id": "",
    "stop_url": "",
    "location_type": 0
  },
  {
    "stop_id": "AA251",
    "stop_code": 1649,
    "stop_name": "BEECHWOOD / MARIER",
    "stop_desc": "",
    "stop_lat": 45.442197,
    "stop_lon": -75.671357,
    "zone_id": "",
    "stop_url": "",
    "location_type": 0
  },
  {
    "stop_id": "AA260",
    "stop_code": 7015,
    "stop_name": "BEECHWOOD / ACACIA",
    "stop_desc": "",
    "stop_lat": 45.442715,
    "stop_lon": -75.671039,
    "zone_id": "",
    "stop_url": "",
    "location_type": 0
  },
  {
    "stop_id": "AA270",
    "stop_code": 7013,
    "stop_name": "BEECHWOOD / JOLLIET",
    "stop_desc": "",
    "stop_lat": 45.444136,
    "stop_lon": -75.670294,
    "zone_id": "",
    "stop_url": "",
    "location_type": 0
  },
  {
    "stop_id": "AA280",
    "stop_code": 8797,
    "stop_name": "BEECHWOOD / CORONA",
    "stop_desc": "",
    "stop_lat": 45.444071,
    "stop_lon": -75.670537,
    "zone_id": "",
    "stop_url": "",
    "location_type": 0
  },
  {
    "stop_id": "AA300",
    "stop_code": 7016,
    "stop_name": "BEECHWOOD / JULIANA",
    "stop_desc": "",
    "stop_lat": 45.445864,
    "stop_lon": -75.669501,
    "zone_id": "",
    "stop_url": "",
    "location_type": 0
  },
  {
    "stop_id": "AA310",
    "stop_code": 8796,
    "stop_name": "BEECHWOOD / JULIANA",
    "stop_desc": "",
    "stop_lat": 45.445897,
    "stop_lon": -75.669181,
    "zone_id": "",
    "stop_url": "",
    "location_type": 0
  },
  {
    "stop_id": "AA320",
    "stop_code": 7017,
    "stop_name": "HEMLOCK / LANSDOWNE",
    "stop_desc": "",
    "stop_lat": 45.447638,
    "stop_lon": -75.668453,
    "zone_id": "",
    "stop_url": "",
    "location_type": 0
  },
  {
    "stop_id": "AA325",
    "stop_code": 7018,
    "stop_name": "HEMLOCK / WHITEMARL",
    "stop_desc": "",
    "stop_lat": 45.448842,
    "stop_lon": -75.665801,
    "zone_id": "",
    "stop_url": "",
    "location_type": 0
  },
  {
    "stop_id": "AA330",
    "stop_code": 7019,
    "stop_name": "HEMLOCK / LANSDOWNE",
    "stop_desc": "",
    "stop_lat": 45.447599,
    "stop_lon": -75.668082,
    "zone_id": "",
    "stop_url": "",
    "location_type": 0
  },
  {
    "stop_id": "AA335",
    "stop_code": 7020,
    "stop_name": "HEMLOCK / WHITEMARL",
    "stop_desc": "",
    "stop_lat": 45.448774,
    "stop_lon": -75.665035,
    "zone_id": "",
    "stop_url": "",
    "location_type": 0
  },
  {
    "stop_id": "AA340",
    "stop_code": 8788,
    "stop_name": "SPRINGFIELD / BEECHWOOD",
    "stop_desc": "",
    "stop_lat": 45.440082,
    "stop_lon": -75.676297,
    "zone_id": "",
    "stop_url": "",
    "location_type": 0
  },
  {
    "stop_id": "AA350",
    "stop_code": 7021,
    "stop_name": "SPRINGFIELD / PUTMAN",
    "stop_desc": "",
    "stop_lat": 45.441849,
    "stop_lon": -75.676808,
    "zone_id": "",
    "stop_url": "",
    "location_type": 0
  },
  {
    "stop_id": "AA360",
    "stop_code": 7022,
    "stop_name": "SPRINGFIELD / RIDEAU",
    "stop_desc": "",
    "stop_lat": 45.443679,
    "stop_lon": -75.67719,
    "zone_id": "",
    "stop_url": "",
    "location_type": 0
  },
  {
    "stop_id": "AA370",
    "stop_code": 7023,
    "stop_name": "SPRINGFIELD / LINDENLEA",
    "stop_desc": "",
    "stop_lat": 45.444913,
    "stop_lon": -75.677441,
    "zone_id": "",
    "stop_url": "",
    "location_type": 0
  },
  {
    "stop_id": "AA380",
    "stop_code": 8789,
    "stop_name": "MAPLE LANE / SPRINGFIELD",
    "stop_desc": "",
    "stop_lat": 45.446327,
    "stop_lon": -75.677599,
    "zone_id": "",
    "stop_url": "",
    "location_type": 0
  },
  {
    "stop_id": "AA390",
    "stop_code": 7024,
    "stop_name": "MAPLE LANE / ELMDALE",
    "stop_desc": "",
    "stop_lat": 45.44655,
    "stop_lon": -75.674886,
    "zone_id": "",
    "stop_url": "",
    "location_type": 0
  },
  {
    "stop_id": "AA400",
    "stop_code": 7025,
    "stop_name": "MAPLE LANE / ACACIA",
    "stop_desc": "",
    "stop_lat": 45.446709,
    "stop_lon": -75.673132,
    "zone_id": "",
    "stop_url": "",
    "location_type": 0
  },
  {
    "stop_id": "AA410",
    "stop_code": 7026,
    "stop_name": "ACACIA / RIDEAU",
    "stop_desc": "",
    "stop_lat": 45.444571,
    "stop_lon": -75.672435,
    "zone_id": "",
    "stop_url": "",
    "location_type": 0
  },
  {
    "stop_id": "AB060",
    "stop_code": 1650,
    "stop_name": "MARIER / BEECHWOOD",
    "stop_desc": "",
    "stop_lat": 45.441973,
    "stop_lon": -75.671501,
    "zone_id": "",
    "stop_url": "",
    "location_type": 0
  },
  {
    "stop_id": "AB065",
    "stop_code": 7263,
    "stop_name": "MARIER / BARRETTE",
    "stop_desc": "",
    "stop_lat": 45.441915,
    "stop_lon": -75.670965,
    "zone_id": "",
    "stop_url": "",
    "location_type": 0
  },
  {
    "stop_id": "AB070",
    "stop_code": 7029,
    "stop_name": "MARIER / GENEST",
    "stop_desc": "",
    "stop_lat": 45.441176,
    "stop_lon": -75.669043,
    "zone_id": "",
    "stop_url": "",
    "location_type": 0
  },
  {
    "stop_id": "AB075",
    "stop_code": 7264,
    "stop_name": "MARIER / GENEST",
    "stop_desc": "",
    "stop_lat": 45.441055,
    "stop_lon": -75.669086,
    "zone_id": "",
    "stop_url": "",
    "location_type": 0
  },
  {
    "stop_id": "AB100",
    "stop_code": 8752,
    "stop_name": "DES PÈRES BLANCS / MARIER",
    "stop_desc": "",
    "stop_lat": 45.44005,
    "stop_lon": -75.665714,
    "zone_id": "",
    "stop_url": "",
    "location_type": 0
  },
  {
    "stop_id": "AB110",
    "stop_code": 8995,
    "stop_name": "DES PÈRES BLANCS / MARIER",
    "stop_desc": "",
    "stop_lat": 45.440173,
    "stop_lon": -75.665367,
    "zone_id": "",
    "stop_url": "",
    "location_type": 0
  },
  {
    "stop_id": "AB120",
    "stop_code": 7034,
    "stop_name": "DES PÈRES BLANCS / MARQUETTE",
    "stop_desc": "",
    "stop_lat": 45.44086,
    "stop_lon": -75.664577,
    "zone_id": "",
    "stop_url": "",
    "location_type": 0
  },
  {
    "stop_id": "AB130",
    "stop_code": 7035,
    "stop_name": "DES PÈRES BLANCS / LONGPRÉ",
    "stop_desc": "",
    "stop_lat": 45.440788,
    "stop_lon": -75.664527,
    "zone_id": "",
    "stop_url": "",
    "location_type": 0
  },
  {
    "stop_id": "AB185",
    "stop_code": "0839",
    "stop_name": "DES PÈRES BLANCS / LEBRUN",
    "stop_desc": "",
    "stop_lat": 45.442712,
    "stop_lon": -75.661801,
    "zone_id": "",
    "stop_url": "",
    "location_type": 0
  },
  {
    "stop_id": "AB195",
    "stop_code": 1890,
    "stop_name": "DES PÈRES BLANCS / LEBRUN",
    "stop_desc": "",
    "stop_lat": 45.442358,
    "stop_lon": -75.662512,
    "zone_id": "",
    "stop_url": "",
    "location_type": 0
  },
  {
    "stop_id": "AB200",
    "stop_code": 7040,
    "stop_name": "300 DES PÈRES BLANCS",
    "stop_desc": "",
    "stop_lat": 45.444348,
    "stop_lon": -75.660157,
    "zone_id": "",
    "stop_url": "",
    "location_type": 0
  },
  {
    "stop_id": "AB290",
    "stop_code": 1545,
    "stop_name": "GRANVILLE / MONTRÉAL",
    "stop_desc": "",
    "stop_lat": 45.438199,
    "stop_lon": -75.656244,
    "zone_id": "",
    "stop_url": "",
    "location_type": 0
  },
  {
    "stop_id": "AB300",
    "stop_code": 8749,
    "stop_name": "ALFRED / MONTRÉAL",
    "stop_desc": "",
    "stop_lat": 45.438861,
    "stop_lon": -75.654585,
    "zone_id": "",
    "stop_url": "",
    "location_type": 0
  },
  {
    "stop_id": "AB310",
    "stop_code": 7046,
    "stop_name": "MONTFORT / ALFRED",
    "stop_desc": "",
    "stop_lat": 45.439448,
    "stop_lon": -75.656059,
    "zone_id": "",
    "stop_url": "",
    "location_type": 0
  },
  {
    "stop_id": "AB320",
    "stop_code": 1544,
    "stop_name": "MONTFORT / GRANVILLE",
    "stop_desc": "",
    "stop_lat": 45.43912,
    "stop_lon": -75.65669,
    "zone_id": "",
    "stop_url": "",
    "location_type": 0
  },
  {
    "stop_id": "AB330",
    "stop_code": 8745,
    "stop_name": "MONTFORT / STE ANNE",
    "stop_desc": "",
    "stop_lat": 45.439118,
    "stop_lon": -75.658914,
    "zone_id": "",
    "stop_url": "",
    "location_type": 0
  },
  {
    "stop_id": "AB340",
    "stop_code": 8747,
    "stop_name": "MONTFORT / STE ANNE",
    "stop_desc": "",
    "stop_lat": 45.43894,
    "stop_lon": -75.659224,
    "zone_id": "",
    "stop_url": "",
    "location_type": 0
  },
  {
    "stop_id": "AB350",
    "stop_code": 7049,
    "stop_name": "MONTFORT / BRADLEY",
    "stop_desc": "",
    "stop_lat": 45.438845,
    "stop_lon": -75.660976,
    "zone_id": "",
    "stop_url": "",
    "location_type": 0
  },
  {
    "stop_id": "AB360",
    "stop_code": 7047,
    "stop_name": "MONTFORT / PARK",
    "stop_desc": "",
    "stop_lat": 45.438911,
    "stop_lon": -75.661397,
    "zone_id": "",
    "stop_url": "",
    "location_type": 0
  },
  {
    "stop_id": "AB370",
    "stop_code": 7048,
    "stop_name": "MONTFORT / MARIER",
    "stop_desc": "",
    "stop_lat": 45.438806,
    "stop_lon": -75.663009,
    "zone_id": "",
    "stop_url": "",
    "location_type": 0
  },
  {
    "stop_id": "AB380",
    "stop_code": 7050,
    "stop_name": "MARIER / MONTFORT",
    "stop_desc": "",
    "stop_lat": 45.438881,
    "stop_lon": -75.663404,
    "zone_id": "",
    "stop_url": "",
    "location_type": 0
  },
  {
    "stop_id": "AB450",
    "stop_code": 8944,
    "stop_name": "VANIER / PATHWAY",
    "stop_desc": "",
    "stop_lat": 45.437735,
    "stop_lon": -75.67403,
    "zone_id": "",
    "stop_url": "",
    "location_type": 0
  },
  {
    "stop_id": "AB455",
    "stop_code": 1398,
    "stop_name": "VANIER / PATHWAY",
    "stop_desc": "",
    "stop_lat": 45.437481,
    "stop_lon": -75.673855,
    "zone_id": "",
    "stop_url": "",
    "location_type": 0
  },
  {
    "stop_id": "AB456",
    "stop_code": 6579,
    "stop_name": "VANIER / MEILLEUR",
    "stop_desc": "",
    "stop_lat": 45.437316,
    "stop_lon": -75.671523,
    "zone_id": "",
    "stop_url": "",
    "location_type": 0
  },
  {
    "stop_id": "AB458",
    "stop_code": 6580,
    "stop_name": "VANIER / MEILLEUR",
    "stop_desc": "",
    "stop_lat": 45.437155,
    "stop_lon": -75.671594,
    "zone_id": "",
    "stop_url": "",
    "location_type": 0
  },
  {
    "stop_id": "AB460",
    "stop_code": 7051,
    "stop_name": "VANIER / DESCHAMPS",
    "stop_desc": "",
    "stop_lat": 45.436563,
    "stop_lon": -75.669052,
    "zone_id": "",
    "stop_url": "",
    "location_type": 0
  },
  {
    "stop_id": "AB470",
    "stop_code": 8775,
    "stop_name": "VANIER / DESCHAMPS",
    "stop_desc": "",
    "stop_lat": 45.436553,
    "stop_lon": -75.669601,
    "zone_id": "",
    "stop_url": "",
    "location_type": 0
  },
  {
    "stop_id": "AB480",
    "stop_code": 7052,
    "stop_name": "VANIER / MONTRÉAL",
    "stop_desc": "",
    "stop_lat": 45.435088,
    "stop_lon": -75.666426,
    "zone_id": "",
    "stop_url": "",
    "location_type": 0
  },
  {
    "stop_id": "AB490",
    "stop_code": 8781,
    "stop_name": "MONTRÉAL / NORTH RIVER",
    "stop_desc": "",
    "stop_lat": 45.433016,
    "stop_lon": -75.66983,
    "zone_id": "",
    "stop_url": "",
    "location_type": 0
  },
  {
    "stop_id": "AB500",
    "stop_code": 1575,
    "stop_name": "MONTRÉAL / MONTGOMERY",
    "stop_desc": "",
    "stop_lat": 45.433232,
    "stop_lon": -75.668664,
    "zone_id": "",
    "stop_url": "",
    "location_type": 0
  },
  {
    "stop_id": "AB510",
    "stop_code": 8783,
    "stop_name": "MONTRÉAL / VANIER",
    "stop_desc": "",
    "stop_lat": 45.434234,
    "stop_lon": -75.666548,
    "zone_id": "",
    "stop_url": "",
    "location_type": 0
  },
  {
    "stop_id": "AB520",
    "stop_code": 7053,
    "stop_name": "MONTRÉAL / VANIER",
    "stop_desc": "",
    "stop_lat": 45.434222,
    "stop_lon": -75.666157,
    "zone_id": "",
    "stop_url": "",
    "location_type": 0
  },
  {
    "stop_id": "AB530",
    "stop_code": 8947,
    "stop_name": "MONTRÉAL / EMOND",
    "stop_desc": "",
    "stop_lat": 45.435224,
    "stop_lon": -75.664149,
    "zone_id": "",
    "stop_url": "",
    "location_type": 0
  },
  {
    "stop_id": "AB540",
    "stop_code": 7054,
    "stop_name": "MONTRÉAL / CYR",
    "stop_desc": "",
    "stop_lat": 45.435052,
    "stop_lon": -75.663972,
    "zone_id": "",
    "stop_url": "",
    "location_type": 0
  },
  {
    "stop_id": "AB550",
    "stop_code": 8784,
    "stop_name": "MONTRÉAL / OLMSTEAD",
    "stop_desc": "",
    "stop_lat": 45.435913,
    "stop_lon": -75.6624,
    "zone_id": "",
    "stop_url": "",
    "location_type": 0
  },
  {
    "stop_id": "AB560",
    "stop_code": 8758,
    "stop_name": "MONTRÉAL / OLMSTEAD",
    "stop_desc": "",
    "stop_lat": 45.4356,
    "stop_lon": -75.662584,
    "zone_id": "",
    "stop_url": "",
    "location_type": 0
  },
  {
    "stop_id": "AB570",
    "stop_code": 7055,
    "stop_name": "MONTRÉAL / MARIER",
    "stop_desc": "",
    "stop_lat": 45.436514,
    "stop_lon": -75.660845,
    "zone_id": "",
    "stop_url": "",
    "location_type": 0
  },
  {
    "stop_id": "AB580",
    "stop_code": 7057,
    "stop_name": "MONTRÉAL / BEGIN",
    "stop_desc": "",
    "stop_lat": 45.436315,
    "stop_lon": -75.660733,
    "zone_id": "",
    "stop_url": "",
    "location_type": 0
  },
  {
    "stop_id": "AB600",
    "stop_code": 7058,
    "stop_name": "MONTRÉAL / LACASSE",
    "stop_desc": "",
    "stop_lat": 45.437259,
    "stop_lon": -75.658213,
    "zone_id": "",
    "stop_url": "",
    "location_type": 0
  },
  {
    "stop_id": "AB611",
    "stop_code": 1279,
    "stop_name": "MONTRÉAL / BRADLEY",
    "stop_desc": "",
    "stop_lat": 45.437323,
    "stop_lon": -75.658618,
    "zone_id": "",
    "stop_url": "",
    "location_type": 0
  },
  {
    "stop_id": "AB620",
    "stop_code": 7059,
    "stop_name": "MONTRÉAL / LAFONTAINE",
    "stop_desc": "",
    "stop_lat": 45.437828,
    "stop_lon": -75.656675,
    "zone_id": "",
    "stop_url": "",
    "location_type": 0
  },
  {
    "stop_id": "AB630",
    "stop_code": 1543,
    "stop_name": "MONTRÉAL / GRANVILLE",
    "stop_desc": "",
    "stop_lat": 45.438277,
    "stop_lon": -75.655859,
    "zone_id": "",
    "stop_url": "",
    "location_type": 0
  },
  {
    "stop_id": "AB640",
    "stop_code": "0929",
    "stop_name": "MONTRÉAL / DUCHARME",
    "stop_desc": "",
    "stop_lat": 45.438659,
    "stop_lon": -75.653987,
    "zone_id": "",
    "stop_url": "",
    "location_type": 0
  },
  {
    "stop_id": "AB650",
    "stop_code": 8741,
    "stop_name": "MONTRÉAL / CANTIN",
    "stop_desc": "",
    "stop_lat": 45.43905,
    "stop_lon": -75.653278,
    "zone_id": "",
    "stop_url": "",
    "location_type": 0
  },
  {
    "stop_id": "AB660",
    "stop_code": 8740,
    "stop_name": "MONTRÉAL / DE L'ÉGLISE",
    "stop_desc": "",
    "stop_lat": 45.439592,
    "stop_lon": -75.651264,
    "zone_id": "",
    "stop_url": "",
    "location_type": 0
  },
  {
    "stop_id": "AB670",
    "stop_code": 8739,
    "stop_name": "MONTRÉAL / DE L'EGLISE",
    "stop_desc": "",
    "stop_lat": 45.439675,
    "stop_lon": -75.651403,
    "zone_id": "",
    "stop_url": "",
    "location_type": 0
  },
  {
    "stop_id": "AB680",
    "stop_code": 7060,
    "stop_name": "MONTRÉAL / NOTRE DAME CEMETERY",
    "stop_desc": "",
    "stop_lat": 45.440199,
    "stop_lon": -75.649273,
    "zone_id": "",
    "stop_url": "",
    "location_type": 0
  },
  {
    "stop_id": "AB690",
    "stop_code": "0927",
    "stop_name": "MONTRÉAL / NOTRE DAME CEMETERY",
    "stop_desc": "",
    "stop_lat": 45.44031,
    "stop_lon": -75.649681,
    "zone_id": "",
    "stop_url": "",
    "location_type": 0
  },
  {
    "stop_id": "AB700",
    "stop_code": "0953",
    "stop_name": "MONTRÉAL / ST LAURENT",
    "stop_desc": "",
    "stop_lat": 45.440911,
    "stop_lon": -75.647102,
    "zone_id": "",
    "stop_url": "",
    "location_type": 0
  },
  {
    "stop_id": "AC010",
    "stop_code": 8723,
    "stop_name": "MCARTHUR / VANIER",
    "stop_desc": "",
    "stop_lat": 45.431265,
    "stop_lon": -75.662942,
    "zone_id": "",
    "stop_url": "",
    "location_type": 0
  },
  {
    "stop_id": "AC020",
    "stop_code": 8773,
    "stop_name": "MCARTHUR / VANIER",
    "stop_desc": "",
    "stop_lat": 45.431059,
    "stop_lon": -75.663111,
    "zone_id": "",
    "stop_url": "",
    "location_type": 0
  },
  {
    "stop_id": "AC030",
    "stop_code": 7061,
    "stop_name": "MCARTHUR / OLMSTEAD",
    "stop_desc": "",
    "stop_lat": 45.431239,
    "stop_lon": -75.660642,
    "zone_id": "",
    "stop_url": "",
    "location_type": 0
  },
  {
    "stop_id": "AC035",
    "stop_code": 8774,
    "stop_name": "MCARTHUR / OLMSTEAD",
    "stop_desc": "",
    "stop_lat": 45.431442,
    "stop_lon": -75.660025,
    "zone_id": "",
    "stop_url": "",
    "location_type": 0
  },
  {
    "stop_id": "AC050",
    "stop_code": 8932,
    "stop_name": "MCARTHUR / ALLEN",
    "stop_desc": "",
    "stop_lat": 45.431532,
    "stop_lon": -75.656911,
    "zone_id": "",
    "stop_url": "",
    "location_type": 0
  },
  {
    "stop_id": "AC060",
    "stop_code": 7063,
    "stop_name": "MCARTHUR / LACASSE",
    "stop_desc": "",
    "stop_lat": 45.431715,
    "stop_lon": -75.656788,
    "zone_id": "",
    "stop_url": "",
    "location_type": 0
  },
  {
    "stop_id": "AC080",
    "stop_code": 8615,
    "stop_name": "MCARTHUR / LAFONTAINE",
    "stop_desc": "",
    "stop_lat": 45.431809,
    "stop_lon": -75.65492,
    "zone_id": "",
    "stop_url": "",
    "location_type": 0
  },
  {
    "stop_id": "AC090",
    "stop_code": 7064,
    "stop_name": "MCARTHUR / LAFONTAINE",
    "stop_desc": "",
    "stop_lat": 45.431678,
    "stop_lon": -75.654271,
    "zone_id": "",
    "stop_url": "",
    "location_type": 0
  },
  {
    "stop_id": "AC100",
    "stop_code": 7065,
    "stop_name": "MCARTHUR / EASTWOOD",
    "stop_desc": "",
    "stop_lat": 45.431966,
    "stop_lon": -75.653039,
    "zone_id": "",
    "stop_url": "",
    "location_type": 0
  },
  {
    "stop_id": "AC110",
    "stop_code": 8600,
    "stop_name": "MCARTHUR / IRWIN MILLER",
    "stop_desc": "",
    "stop_lat": 45.431817,
    "stop_lon": -75.652428,
    "zone_id": "",
    "stop_url": "",
    "location_type": 0
  },
  {
    "stop_id": "AC120",
    "stop_code": 7066,
    "stop_name": "MCARTHUR / BRANT",
    "stop_desc": "",
    "stop_lat": 45.432097,
    "stop_lon": -75.65006,
    "zone_id": "",
    "stop_url": "",
    "location_type": 0
  },
  {
    "stop_id": "AC130",
    "stop_code": 7067,
    "stop_name": "MCARTHUR / BRANT",
    "stop_desc": "",
    "stop_lat": 45.431989,
    "stop_lon": -75.650074,
    "zone_id": "",
    "stop_url": "",
    "location_type": 0
  },
  {
    "stop_id": "AC140",
    "stop_code": 8605,
    "stop_name": "MCARTHUR / DE L'ÉGLISE",
    "stop_desc": "",
    "stop_lat": 45.432265,
    "stop_lon": -75.647866,
    "zone_id": "",
    "stop_url": "",
    "location_type": 0
  },
  {
    "stop_id": "AC150",
    "stop_code": 8662,
    "stop_name": "MCARTHUR / MOORVALE",
    "stop_desc": "",
    "stop_lat": 45.432145,
    "stop_lon": -75.647876,
    "zone_id": "",
    "stop_url": "",
    "location_type": 0
  },
  {
    "stop_id": "AC180",
    "stop_code": 7069,
    "stop_name": "MCARTHUR / ST LAURENT",
    "stop_desc": "",
    "stop_lat": 45.432612,
    "stop_lon": -75.643189,
    "zone_id": "",
    "stop_url": "",
    "location_type": 0
  },
  {
    "stop_id": "AC190",
    "stop_code": 7070,
    "stop_name": "MCARTHUR / MAY",
    "stop_desc": "",
    "stop_lat": 45.432343,
    "stop_lon": -75.644816,
    "zone_id": "",
    "stop_url": "",
    "location_type": 0
  },
  {
    "stop_id": "AD010",
    "stop_code": 7080,
    "stop_name": "VANIER / COVENTRY",
    "stop_desc": "",
    "stop_lat": 45.420935,
    "stop_lon": -75.658073,
    "zone_id": "",
    "stop_url": "",
    "location_type": 0
  },
  {
    "stop_id": "AD020",
    "stop_code": 7081,
    "stop_name": "VANIER / COVENTRY",
    "stop_desc": "",
    "stop_lat": 45.421816,
    "stop_lon": -75.659146,
    "zone_id": "",
    "stop_url": "",
    "location_type": 0
  },
  {
    "stop_id": "AD030",
    "stop_code": 8175,
    "stop_name": "VANIER / PRESLAND",
    "stop_desc": "",
    "stop_lat": 45.42259,
    "stop_lon": -75.661348,
    "zone_id": "",
    "stop_url": "",
    "location_type": 0
  },
  {
    "stop_id": "AD040",
    "stop_code": 8174,
    "stop_name": "VANIER / PRESLAND",
    "stop_desc": "",
    "stop_lat": 45.42281,
    "stop_lon": -75.66119,
    "zone_id": "",
    "stop_url": "",
    "location_type": 0
  },
  {
    "stop_id": "AD050",
    "stop_code": 7082,
    "stop_name": "VANIER / QUEEN MARY",
    "stop_desc": "",
    "stop_lat": 45.424367,
    "stop_lon": -75.662375,
    "zone_id": "",
    "stop_url": "",
    "location_type": 0
  },
  {
    "stop_id": "AD060",
    "stop_code": 7084,
    "stop_name": "VANIER / QUEEN MARY",
    "stop_desc": "",
    "stop_lat": 45.424239,
    "stop_lon": -75.662023,
    "zone_id": "",
    "stop_url": "",
    "location_type": 0
  },
  {
    "stop_id": "AD070",
    "stop_code": 7083,
    "stop_name": "VANIER / DONALD",
    "stop_desc": "",
    "stop_lat": 45.426946,
    "stop_lon": -75.662967,
    "zone_id": "",
    "stop_url": "",
    "location_type": 0
  },
  {
    "stop_id": "AD080",
    "stop_code": 8517,
    "stop_name": "VANIER / DONALD",
    "stop_desc": "",
    "stop_lat": 45.4277,
    "stop_lon": -75.662713,
    "zone_id": "",
    "stop_url": "",
    "location_type": 0
  },
  {
    "stop_id": "AD085",
    "stop_code": 5700,
    "stop_name": "VANIER / MCARTHUR",
    "stop_desc": "",
    "stop_lat": 45.430454,
    "stop_lon": -75.664027,
    "zone_id": "",
    "stop_url": "",
    "location_type": 0
  },
  {
    "stop_id": "AD090",
    "stop_code": 8770,
    "stop_name": "VANIER / MCARTHUR",
    "stop_desc": "",
    "stop_lat": 45.431696,
    "stop_lon": -75.664009,
    "zone_id": "",
    "stop_url": "",
    "location_type": 0
  },
  {
    "stop_id": "AD100",
    "stop_code": 8945,
    "stop_name": "VANIER / MCARTHUR",
    "stop_desc": "",
    "stop_lat": 45.431716,
    "stop_lon": -75.664354,
    "zone_id": "",
    "stop_url": "",
    "location_type": 0
  },
  {
    "stop_id": "AD110",
    "stop_code": 7085,
    "stop_name": "VANIER / MONTRÉAL",
    "stop_desc": "",
    "stop_lat": 45.433994,
    "stop_lon": -75.665752,
    "zone_id": "",
    "stop_url": "",
    "location_type": 0
  },
  {
    "stop_id": "AD135",
    "stop_code": 1995,
    "stop_name": "MCARTHUR / NORTH RIVER",
    "stop_desc": "",
    "stop_lat": 45.430708,
    "stop_lon": -75.667998,
    "zone_id": "",
    "stop_url": "",
    "location_type": 0
  },
  {
    "stop_id": "AD140",
    "stop_code": 8777,
    "stop_name": "MCARTHUR / MAYFIELD",
    "stop_desc": "",
    "stop_lat": 45.431087,
    "stop_lon": -75.665705,
    "zone_id": "",
    "stop_url": "",
    "location_type": 0
  },
  {
    "stop_id": "AD145",
    "stop_code": 7086,
    "stop_name": "MCARTHUR / MAYFIELD",
    "stop_desc": "",
    "stop_lat": 45.430871,
    "stop_lon": -75.665683,
    "zone_id": "",
    "stop_url": "",
    "location_type": 0
  },
  {
    "stop_id": "AD200",
    "stop_code": 8780,
    "stop_name": "NORTH RIVER / MONTRÉAL",
    "stop_desc": "",
    "stop_lat": 45.43245,
    "stop_lon": -75.669979,
    "zone_id": "",
    "stop_url": "",
    "location_type": 0
  },
  {
    "stop_id": "AD210",
    "stop_code": 8786,
    "stop_name": "NORTH RIVER / SELKIRK",
    "stop_desc": "",
    "stop_lat": 45.432006,
    "stop_lon": -75.669474,
    "zone_id": "",
    "stop_url": "",
    "location_type": 0
  },
  {
    "stop_id": "AD220",
    "stop_code": 7087,
    "stop_name": "NORTH RIVER / AD. 333",
    "stop_desc": "",
    "stop_lat": 45.431285,
    "stop_lon": -75.669434,
    "zone_id": "",
    "stop_url": "",
    "location_type": 0
  },
  {
    "stop_id": "AD230",
    "stop_code": 7088,
    "stop_name": "NORTH RIVER / MCARTHUR",
    "stop_desc": "",
    "stop_lat": 45.431229,
    "stop_lon": -75.66909,
    "zone_id": "",
    "stop_url": "",
    "location_type": 0
  },
  {
    "stop_id": "AD260",
    "stop_code": 8772,
    "stop_name": "NORTH RIVER / WASHINGTON",
    "stop_desc": "",
    "stop_lat": 45.42947,
    "stop_lon": -75.668489,
    "zone_id": "",
    "stop_url": "",
    "location_type": 0
  },
  {
    "stop_id": "AD265",
    "stop_code": 8768,
    "stop_name": "NORTH RIVER / WASHINGTON",
    "stop_desc": "",
    "stop_lat": 45.429297,
    "stop_lon": -75.668198,
    "zone_id": "",
    "stop_url": "",
    "location_type": 0
  },
  {
    "stop_id": "AD270",
    "stop_code": 7090,
    "stop_name": "NORTH RIVER / ONTARIO",
    "stop_desc": "",
    "stop_lat": 45.42796,
    "stop_lon": -75.667553,
    "zone_id": "",
    "stop_url": "",
    "location_type": 0
  },
  {
    "stop_id": "AD280",
    "stop_code": 7089,
    "stop_name": "NORTH RIVER / ONTARIO",
    "stop_desc": "",
    "stop_lat": 45.427899,
    "stop_lon": -75.667746,
    "zone_id": "",
    "stop_url": "",
    "location_type": 0
  },
  {
    "stop_id": "AD300",
    "stop_code": 1897,
    "stop_name": "NORTH RIVER / COLUMBUS",
    "stop_desc": "",
    "stop_lat": 45.426291,
    "stop_lon": -75.666951,
    "zone_id": "",
    "stop_url": "",
    "location_type": 0
  },
  {
    "stop_id": "AD310",
    "stop_code": 8581,
    "stop_name": "NORTH RIVER / COLUMBUS",
    "stop_desc": "",
    "stop_lat": 45.426154,
    "stop_lon": -75.666711,
    "zone_id": "",
    "stop_url": "",
    "location_type": 0
  },
  {
    "stop_id": "AD320",
    "stop_code": 7092,
    "stop_name": "QUEEN MARY / NORTH RIVER",
    "stop_desc": "",
    "stop_lat": 45.424293,
    "stop_lon": -75.665639,
    "zone_id": "",
    "stop_url": "",
    "location_type": 0
  },
  {
    "stop_id": "AD330",
    "stop_code": 7328,
    "stop_name": "QUEEN MARY / NORTH RIVER",
    "stop_desc": "",
    "stop_lat": 45.424165,
    "stop_lon": -75.665347,
    "zone_id": "",
    "stop_url": "",
    "location_type": 0
  },
  {
    "stop_id": "AD340",
    "stop_code": 7091,
    "stop_name": "QUEEN MARY / MARION",
    "stop_desc": "",
    "stop_lat": 45.424264,
    "stop_lon": -75.664195,
    "zone_id": "",
    "stop_url": "",
    "location_type": 0
  },
  {
    "stop_id": "AD350",
    "stop_code": 7093,
    "stop_name": "QUEEN MARY / MARION",
    "stop_desc": "",
    "stop_lat": 45.424451,
    "stop_lon": -75.663899,
    "zone_id": "",
    "stop_url": "",
    "location_type": 0
  },
  {
    "stop_id": "AD360",
    "stop_code": 8580,
    "stop_name": "QUEEN MARY / VANIER",
    "stop_desc": "",
    "stop_lat": 45.424554,
    "stop_lon": -75.661968,
    "zone_id": "",
    "stop_url": "",
    "location_type": 0
  },
  {
    "stop_id": "AD370",
    "stop_code": 8576,
    "stop_name": "QUEEN MARY / VANIER",
    "stop_desc": "",
    "stop_lat": 45.424444,
    "stop_lon": -75.661714,
    "zone_id": "",
    "stop_url": "",
    "location_type": 0
  },
  {
    "stop_id": "AD380",
    "stop_code": 7097,
    "stop_name": "QUEEN MARY / VERA",
    "stop_desc": "",
    "stop_lat": 45.424533,
    "stop_lon": -75.660319,
    "zone_id": "",
    "stop_url": "",
    "location_type": 0
  },
  {
    "stop_id": "AD390",
    "stop_code": 7094,
    "stop_name": "QUEEN MARY / VERA",
    "stop_desc": "",
    "stop_lat": 45.424719,
    "stop_lon": -75.659895,
    "zone_id": "",
    "stop_url": "",
    "location_type": 0
  },
  {
    "stop_id": "AD400",
    "stop_code": 7095,
    "stop_name": "QUILL / QUEEN MARY",
    "stop_desc": "",
    "stop_lat": 45.424917,
    "stop_lon": -75.65749,
    "zone_id": "",
    "stop_url": "",
    "location_type": 0
  },
  {
    "stop_id": "AD410",
    "stop_code": 7098,
    "stop_name": "QUILL / QUEEN MARY",
    "stop_desc": "",
    "stop_lat": 45.425195,
    "stop_lon": -75.657345,
    "zone_id": "",
    "stop_url": "",
    "location_type": 0
  },
  {
    "stop_id": "AD420",
    "stop_code": 7096,
    "stop_name": "QUILL / GLYNN",
    "stop_desc": "",
    "stop_lat": 45.425845,
    "stop_lon": -75.657591,
    "zone_id": "",
    "stop_url": "",
    "location_type": 0
  },
  {
    "stop_id": "AD430",
    "stop_code": 7099,
    "stop_name": "QUILL / COLUMBUS",
    "stop_desc": "",
    "stop_lat": 45.426673,
    "stop_lon": -75.657619,
    "zone_id": "",
    "stop_url": "",
    "location_type": 0
  },
  {
    "stop_id": "AD440",
    "stop_code": 8577,
    "stop_name": "DONALD / QUILL",
    "stop_desc": "",
    "stop_lat": 45.427616,
    "stop_lon": -75.657386,
    "zone_id": "",
    "stop_url": "",
    "location_type": 0
  },
  {
    "stop_id": "AD450",
    "stop_code": 8579,
    "stop_name": "DONALD / QUILL",
    "stop_desc": "",
    "stop_lat": 45.427776,
    "stop_lon": -75.657166,
    "zone_id": "",
    "stop_url": "",
    "location_type": 0
  },
  {
    "stop_id": "AD460",
    "stop_code": 7100,
    "stop_name": "DONALD / EDITH",
    "stop_desc": "",
    "stop_lat": 45.427754,
    "stop_lon": -75.655428,
    "zone_id": "",
    "stop_url": "",
    "location_type": 0
  },
  {
    "stop_id": "AD470",
    "stop_code": 7103,
    "stop_name": "DONALD / EVE",
    "stop_desc": "",
    "stop_lat": 45.427958,
    "stop_lon": -75.654927,
    "zone_id": "",
    "stop_url": "",
    "location_type": 0
  },
  {
    "stop_id": "AD645",
    "stop_code": 7404,
    "stop_name": "LOLA / DONALD",
    "stop_desc": "",
    "stop_lat": 45.427672,
    "stop_lon": -75.652822,
    "zone_id": "",
    "stop_url": "",
    "location_type": 0
  },
  {
    "stop_id": "AD646",
    "stop_code": 1517,
    "stop_name": "LOLA / DONALD",
    "stop_desc": "",
    "stop_lat": 45.427734,
    "stop_lon": -75.65263,
    "zone_id": "",
    "stop_url": "",
    "location_type": 0
  },
  {
    "stop_id": "AD655",
    "stop_code": 7267,
    "stop_name": "LOLA / KING GEORGE",
    "stop_desc": "",
    "stop_lat": 45.42551,
    "stop_lon": -75.65251,
    "zone_id": "",
    "stop_url": "",
    "location_type": 0
  },
  {
    "stop_id": "AD660",
    "stop_code": 7114,
    "stop_name": "LOLA / QUEEN MARY",
    "stop_desc": "",
    "stop_lat": 45.425387,
    "stop_lon": -75.652292,
    "zone_id": "",
    "stop_url": "",
    "location_type": 0
  },
  {
    "stop_id": "AD670",
    "stop_code": 7113,
    "stop_name": "LOLA / PRESLAND",
    "stop_desc": "",
    "stop_lat": 45.423336,
    "stop_lon": -75.651737,
    "zone_id": "",
    "stop_url": "",
    "location_type": 0
  },
  {
    "stop_id": "AD680",
    "stop_code": 7115,
    "stop_name": "LOLA / PRESLAND",
    "stop_desc": "",
    "stop_lat": 45.423388,
    "stop_lon": -75.65157,
    "zone_id": "",
    "stop_url": "",
    "location_type": 0
  },
  {
    "stop_id": "AD690",
    "stop_code": 8589,
    "stop_name": "LOLA / COVENTRY",
    "stop_desc": "",
    "stop_lat": 45.421998,
    "stop_lon": -75.650965,
    "zone_id": "",
    "stop_url": "",
    "location_type": 0
  },
  {
    "stop_id": "AD700",
    "stop_code": 7116,
    "stop_name": "LOLA / COVENTRY",
    "stop_desc": "",
    "stop_lat": 45.421996,
    "stop_lon": -75.650697,
    "zone_id": "",
    "stop_url": "",
    "location_type": 0
  },
  {
    "stop_id": "AD720",
    "stop_code": 7118,
    "stop_name": "360 COVENTRY",
    "stop_desc": "",
    "stop_lat": 45.421432,
    "stop_lon": -75.647894,
    "zone_id": "",
    "stop_url": "",
    "location_type": 0
  },
  {
    "stop_id": "AD730",
    "stop_code": 7117,
    "stop_name": "COVENTRY / BELFAST",
    "stop_desc": "",
    "stop_lat": 45.421528,
    "stop_lon": -75.648276,
    "zone_id": "",
    "stop_url": "",
    "location_type": 0
  },
  {
    "stop_id": "AD740",
    "stop_code": 1977,
    "stop_name": "COVENTRY / ST-LAURENT MALL",
    "stop_desc": "",
    "stop_lat": 45.422995,
    "stop_lon": -75.642253,
    "zone_id": "",
    "stop_url": "",
    "location_type": 0
  },
  {
    "stop_id": "AD750",
    "stop_code": 1978,
    "stop_name": "COVENTRY / ST-LAURENT MALL",
    "stop_desc": "",
    "stop_lat": 45.422987,
    "stop_lon": -75.642463,
    "zone_id": "",
    "stop_url": "",
    "location_type": 0
  },
  {
    "stop_id": "AE010",
    "stop_code": 1371,
    "stop_name": "TREMBLAY / VIA RAIL",
    "stop_desc": "",
    "stop_lat": 45.418402,
    "stop_lon": -75.652311,
    "zone_id": "",
    "stop_url": "",
    "location_type": 0
  },
  {
    "stop_id": "AE015",
    "stop_code": 3024,
    "stop_name": "VIA-RAIL",
    "stop_desc": "",
    "stop_lat": 45.416745,
    "stop_lon": -75.652214,
    "zone_id": "",
    "stop_url": "",
    "location_type": 0
  },
  {
    "stop_id": "AE020",
    "stop_code": 1369,
    "stop_name": "TREMBLAY / VIA RAIL",
    "stop_desc": "",
    "stop_lat": 45.418325,
    "stop_lon": -75.651649,
    "zone_id": "",
    "stop_url": "",
    "location_type": 0
  },
  {
    "stop_id": "AE040",
    "stop_code": 1836,
    "stop_name": "TREMBLAY / BELFAST",
    "stop_desc": "",
    "stop_lat": 45.418719,
    "stop_lon": -75.646827,
    "zone_id": "",
    "stop_url": "",
    "location_type": 0
  },
  {
    "stop_id": "AE050",
    "stop_code": 1837,
    "stop_name": "TREMBLAY / AVENUE K",
    "stop_desc": "",
    "stop_lat": 45.418478,
    "stop_lon": -75.648924,
    "zone_id": "",
    "stop_url": "",
    "location_type": 0
  },
  {
    "stop_id": "AE060",
    "stop_code": 1849,
    "stop_name": "TREMBLAY / AVENUE P",
    "stop_desc": "",
    "stop_lat": 45.418748,
    "stop_lon": -75.644408,
    "zone_id": "",
    "stop_url": "",
    "location_type": 0
  },
  {
    "stop_id": "AE080",
    "stop_code": 7124,
    "stop_name": "TREMBLAY / AVENUE R",
    "stop_desc": "",
    "stop_lat": 45.419044,
    "stop_lon": -75.64218,
    "zone_id": "",
    "stop_url": "",
    "location_type": 0
  },
  {
    "stop_id": "AE090",
    "stop_code": 7126,
    "stop_name": "TREMBLAY / AVENUE R",
    "stop_desc": "",
    "stop_lat": 45.418885,
    "stop_lon": -75.64254,
    "zone_id": "",
    "stop_url": "",
    "location_type": 0
  },
  {
    "stop_id": "AE120",
    "stop_code": 1574,
    "stop_name": "TREMBLAY / AVENUE U",
    "stop_desc": "",
    "stop_lat": 45.419246,
    "stop_lon": -75.63911,
    "zone_id": "",
    "stop_url": "",
    "location_type": 0
  },
  {
    "stop_id": "AE130",
    "stop_code": 7127,
    "stop_name": "TREMBLAY / AVENUE U",
    "stop_desc": "",
    "stop_lat": 45.419138,
    "stop_lon": -75.639125,
    "zone_id": "",
    "stop_url": "",
    "location_type": 0
  },
  {
    "stop_id": "AE140",
    "stop_code": 7129,
    "stop_name": "TREMBLAY / AD. 529",
    "stop_desc": "",
    "stop_lat": 45.419116,
    "stop_lon": -75.636263,
    "zone_id": "",
    "stop_url": "",
    "location_type": 0
  },
  {
    "stop_id": "AE150",
    "stop_code": 7128,
    "stop_name": "TREMBLAY / AD. 530",
    "stop_desc": "",
    "stop_lat": 45.418964,
    "stop_lon": -75.636355,
    "zone_id": "",
    "stop_url": "",
    "location_type": 0
  },
  {
    "stop_id": "AE220",
    "stop_code": 8595,
    "stop_name": "BELFAST / TRAINYARDS",
    "stop_desc": "",
    "stop_lat": 45.414606,
    "stop_lon": -75.641902,
    "zone_id": "",
    "stop_url": "",
    "location_type": 0
  },
  {
    "stop_id": "AE235",
    "stop_code": 8587,
    "stop_name": "TRAINYARDS / TERMINAL",
    "stop_desc": "",
    "stop_lat": 45.413885,
    "stop_lon": -75.643439,
    "zone_id": "",
    "stop_url": "",
    "location_type": 0
  },
  {
    "stop_id": "AE241",
    "stop_code": 8585,
    "stop_name": "TRAINYARDS / BELFAST",
    "stop_desc": "",
    "stop_lat": 45.414395,
    "stop_lon": -75.643318,
    "zone_id": "",
    "stop_url": "",
    "location_type": 0
  },
  {
    "stop_id": "AE260",
    "stop_code": 8582,
    "stop_name": "BELFAST / AD. 805",
    "stop_desc": "",
    "stop_lat": 45.413686,
    "stop_lon": -75.63931,
    "zone_id": "",
    "stop_url": "",
    "location_type": 0
  },
  {
    "stop_id": "AE320",
    "stop_code": 8541,
    "stop_name": "INDUSTRIAL / ST LAURENT",
    "stop_desc": "",
    "stop_lat": 45.406642,
    "stop_lon": -75.627715,
    "zone_id": "",
    "stop_url": "",
    "location_type": 0
  },
  {
    "stop_id": "AE325",
    "stop_code": 7137,
    "stop_name": "831 INDUSTRIAL",
    "stop_desc": "",
    "stop_lat": 45.408088,
    "stop_lon": -75.633212,
    "zone_id": "",
    "stop_url": "",
    "location_type": 0
  },
  {
    "stop_id": "AE330",
    "stop_code": 8548,
    "stop_name": "INDUSTRIAL / ST LAURENT",
    "stop_desc": "",
    "stop_lat": 45.406151,
    "stop_lon": -75.630546,
    "zone_id": "",
    "stop_url": "",
    "location_type": 0
  },
  {
    "stop_id": "AE335",
    "stop_code": 8546,
    "stop_name": "830 INDUSTRIAL",
    "stop_desc": "",
    "stop_lat": 45.407228,
    "stop_lon": -75.632548,
    "zone_id": "",
    "stop_url": "",
    "location_type": 0
  },
  {
    "stop_id": "AE340",
    "stop_code": 7158,
    "stop_name": "INDUSTRIAL / RUSSELL",
    "stop_desc": "",
    "stop_lat": 45.408838,
    "stop_lon": -75.63481,
    "zone_id": "",
    "stop_url": "",
    "location_type": 0
  },
  {
    "stop_id": "AE351",
    "stop_code": "0742",
    "stop_name": "INDUSTRIAL / RUSSELL",
    "stop_desc": "",
    "stop_lat": 45.409101,
    "stop_lon": -75.6351,
    "zone_id": "",
    "stop_url": "",
    "location_type": 0
  },
  {
    "stop_id": "AE355",
    "stop_code": 1188,
    "stop_name": "INDUSTRIAL / RUSSELL",
    "stop_desc": "",
    "stop_lat": 45.409955,
    "stop_lon": -75.637607,
    "zone_id": "",
    "stop_url": "",
    "location_type": 0
  },
  {
    "stop_id": "AE360",
    "stop_code": 1189,
    "stop_name": "INDUSTRIAL / RUSSELL",
    "stop_desc": "",
    "stop_lat": 45.409872,
    "stop_lon": -75.637583,
    "zone_id": "",
    "stop_url": "",
    "location_type": 0
  },
  {
    "stop_id": "AE370",
    "stop_code": 1714,
    "stop_name": "695 INDUSTRIAL",
    "stop_desc": "",
    "stop_lat": 45.410795,
    "stop_lon": -75.640712,
    "zone_id": "",
    "stop_url": "",
    "location_type": 0
  },
  {
    "stop_id": "AE375",
    "stop_code": 1715,
    "stop_name": "700 INDUSTRIAL",
    "stop_desc": "",
    "stop_lat": 45.410744,
    "stop_lon": -75.641055,
    "zone_id": "",
    "stop_url": "",
    "location_type": 0
  },
  {
    "stop_id": "AE450",
    "stop_code": 8629,
    "stop_name": "NEIGHBOURHOOD / CORONATION",
    "stop_desc": "",
    "stop_lat": 45.410259,
    "stop_lon": -75.652763,
    "zone_id": "",
    "stop_url": "",
    "location_type": 0
  },
  {
    "stop_id": "AE480",
    "stop_code": 1392,
    "stop_name": "ROLLAND / NEIGHBOURHOOD WAY",
    "stop_desc": "",
    "stop_lat": 45.409455,
    "stop_lon": -75.653453,
    "zone_id": "",
    "stop_url": "",
    "location_type": 0
  },
  {
    "stop_id": "AE495",
    "stop_code": 3641,
    "stop_name": "CORONATION / NEIGHBOURHOOD",
    "stop_desc": "",
    "stop_lat": 45.410293,
    "stop_lon": -75.652418,
    "zone_id": "",
    "stop_url": "",
    "location_type": 0
  },
  {
    "stop_id": "AE500",
    "stop_code": 8560,
    "stop_name": "CORONATION / AD. 466",
    "stop_desc": "",
    "stop_lat": 45.410705,
    "stop_lon": -75.649754,
    "zone_id": "",
    "stop_url": "",
    "location_type": 0
  },
  {
    "stop_id": "AE510",
    "stop_code": 8556,
    "stop_name": "CORONATION / AD. 466",
    "stop_desc": "",
    "stop_lat": 45.410571,
    "stop_lon": -75.649859,
    "zone_id": "",
    "stop_url": "",
    "location_type": 0
  },
  {
    "stop_id": "AE520",
    "stop_code": 8559,
    "stop_name": "CORONATION / CHOMLEY",
    "stop_desc": "",
    "stop_lat": 45.410621,
    "stop_lon": -75.64577,
    "zone_id": "",
    "stop_url": "",
    "location_type": 0
  },
  {
    "stop_id": "AE530",
    "stop_code": 7144,
    "stop_name": "CORONATION / CHOMLEY",
    "stop_desc": "",
    "stop_lat": 45.410509,
    "stop_lon": -75.646372,
    "zone_id": "",
    "stop_url": "",
    "location_type": 0
  },
  {
    "stop_id": "AE540",
    "stop_code": 7145,
    "stop_name": "CORONATION / WEYBURN",
    "stop_desc": "",
    "stop_lat": 45.410046,
    "stop_lon": -75.64224,
    "zone_id": "",
    "stop_url": "",
    "location_type": 0
  },
  {
    "stop_id": "AE550",
    "stop_code": 7146,
    "stop_name": "CORONATION / WEYBURN",
    "stop_desc": "",
    "stop_lat": 45.409875,
    "stop_lon": -75.642255,
    "zone_id": "",
    "stop_url": "",
    "location_type": 0
  },
  {
    "stop_id": "AE560",
    "stop_code": 8558,
    "stop_name": "CORONATION / BOTSFORD",
    "stop_desc": "",
    "stop_lat": 45.409154,
    "stop_lon": -75.638687,
    "zone_id": "",
    "stop_url": "",
    "location_type": 0
  },
  {
    "stop_id": "AE570",
    "stop_code": 8557,
    "stop_name": "CORONATION / BOTSFORD",
    "stop_desc": "",
    "stop_lat": 45.409049,
    "stop_lon": -75.63874,
    "zone_id": "",
    "stop_url": "",
    "location_type": 0
  },
  {
    "stop_id": "AE580",
    "stop_code": 7147,
    "stop_name": "CORONATION / RUSSELL",
    "stop_desc": "",
    "stop_lat": 45.408736,
    "stop_lon": -75.636766,
    "zone_id": "",
    "stop_url": "",
    "location_type": 0
  },
  {
    "stop_id": "AE590",
    "stop_code": 7150,
    "stop_name": "CORONATION / RUSSELL",
    "stop_desc": "",
    "stop_lat": 45.408499,
    "stop_lon": -75.636361,
    "zone_id": "",
    "stop_url": "",
    "location_type": 0
  },
  {
    "stop_id": "AE600",
    "stop_code": 7148,
    "stop_name": "RUSSELL / SHELLEY",
    "stop_desc": "",
    "stop_lat": 45.407556,
    "stop_lon": -75.635506,
    "zone_id": "",
    "stop_url": "",
    "location_type": 0
  },
  {
    "stop_id": "AE610",
    "stop_code": 7151,
    "stop_name": "RUSSELL / SHELLEY",
    "stop_desc": "",
    "stop_lat": 45.407313,
    "stop_lon": -75.635485,
    "zone_id": "",
    "stop_url": "",
    "location_type": 0
  },
  {
    "stop_id": "AE620",
    "stop_code": 7149,
    "stop_name": "RUSSELL / THIRSK",
    "stop_desc": "",
    "stop_lat": 45.4062,
    "stop_lon": -75.63445,
    "zone_id": "",
    "stop_url": "",
    "location_type": 0
  },
  {
    "stop_id": "AE625",
    "stop_code": 8354,
    "stop_name": "RUSSELL / PERLEY HOSPITAL",
    "stop_desc": "",
    "stop_lat": 45.404597,
    "stop_lon": -75.633103,
    "zone_id": "",
    "stop_url": "",
    "location_type": 0
  },
  {
    "stop_id": "AE630",
    "stop_code": 7163,
    "stop_name": "RUSSELL / THIRSK",
    "stop_desc": "",
    "stop_lat": 45.406032,
    "stop_lon": -75.63454,
    "zone_id": "",
    "stop_url": "",
    "location_type": 0
  },
  {
    "stop_id": "AE635",
    "stop_code": 7155,
    "stop_name": "RUSSELL / PERLEY HOSPITAL",
    "stop_desc": "",
    "stop_lat": 45.404527,
    "stop_lon": -75.633244,
    "zone_id": "",
    "stop_url": "",
    "location_type": 0
  },
  {
    "stop_id": "AE640",
    "stop_code": 8355,
    "stop_name": "RUSSELL / HAIG",
    "stop_desc": "",
    "stop_lat": 45.403711,
    "stop_lon": -75.632448,
    "zone_id": "",
    "stop_url": "",
    "location_type": 0
  },
  {
    "stop_id": "AE650",
    "stop_code": 7152,
    "stop_name": "RUSSELL / HAIG",
    "stop_desc": "",
    "stop_lat": 45.40339,
    "stop_lon": -75.631968,
    "zone_id": "",
    "stop_url": "",
    "location_type": 0
  },
  {
    "stop_id": "AE660",
    "stop_code": 7156,
    "stop_name": "RUSSELL / CUBA",
    "stop_desc": "",
    "stop_lat": 45.402162,
    "stop_lon": -75.62901,
    "zone_id": "",
    "stop_url": "",
    "location_type": 0
  },
  {
    "stop_id": "AE670",
    "stop_code": 7153,
    "stop_name": "RUSSELL / CUBA",
    "stop_desc": "",
    "stop_lat": 45.402186,
    "stop_lon": -75.628652,
    "zone_id": "",
    "stop_url": "",
    "location_type": 0
  },
  {
    "stop_id": "AE680",
    "stop_code": 7154,
    "stop_name": "RUSSELL / AD. 1909",
    "stop_desc": "",
    "stop_lat": 45.401737,
    "stop_lon": -75.626424,
    "zone_id": "",
    "stop_url": "",
    "location_type": 0
  },
  {
    "stop_id": "AE690",
    "stop_code": 7157,
    "stop_name": "RUSSELL / AD. 1909",
    "stop_desc": "",
    "stop_lat": 45.401585,
    "stop_lon": -75.626528,
    "zone_id": "",
    "stop_url": "",
    "location_type": 0
  },
  {
    "stop_id": "AE700",
    "stop_code": 3395,
    "stop_name": "TERMINAL / TRAINYARDS",
    "stop_desc": "",
    "stop_lat": 45.415017,
    "stop_lon": -75.646329,
    "zone_id": "",
    "stop_url": "",
    "location_type": 0
  },
  {
    "stop_id": "AE705",
    "stop_code": 3396,
    "stop_name": "TERMINAL / TRAINYARDS",
    "stop_desc": "",
    "stop_lat": 45.41519,
    "stop_lon": -75.645381,
    "zone_id": "",
    "stop_url": "",
    "location_type": 0
  },
  {
    "stop_id": "AE710",
    "stop_code": 3397,
    "stop_name": "TERMINAL / WALMART ENT.",
    "stop_desc": "",
    "stop_lat": 45.414778,
    "stop_lon": -75.649348,
    "zone_id": "",
    "stop_url": "",
    "location_type": 0
  },
  {
    "stop_id": "AE715",
    "stop_code": 3398,
    "stop_name": "TERMINAL / WALMART ENT.",
    "stop_desc": "",
    "stop_lat": 45.414946,
    "stop_lon": -75.648975,
    "zone_id": "",
    "stop_url": "",
    "location_type": 0
  },
  {
    "stop_id": "AE720",
    "stop_code": 1951,
    "stop_name": "TERMINAL / SANDFORD FLEMING",
    "stop_desc": "",
    "stop_lat": 45.414312,
    "stop_lon": -75.655234,
    "zone_id": "",
    "stop_url": "",
    "location_type": 0
  },
  {
    "stop_id": "AE721",
    "stop_code": 1802,
    "stop_name": "TERMINAL / SANDFORD FLEMING",
    "stop_desc": "",
    "stop_lat": 45.414193,
    "stop_lon": -75.656653,
    "zone_id": "",
    "stop_url": "",
    "location_type": 0
  },
  {
    "stop_id": "AE726",
    "stop_code": 1801,
    "stop_name": "TERMINAL / SANDFORD FLEMING",
    "stop_desc": "",
    "stop_lat": 45.414338,
    "stop_lon": -75.656676,
    "zone_id": "",
    "stop_url": "",
    "location_type": 0
  },
  {
    "stop_id": "AE800",
    "stop_code": 7074,
    "stop_name": "INDUSTRIAL GARAGE / BELFAST",
    "stop_desc": "",
    "stop_lat": 45.412215,
    "stop_lon": -75.637307,
    "zone_id": "",
    "stop_url": "",
    "location_type": 0
  },
  {
    "stop_id": "AE810",
    "stop_code": 7073,
    "stop_name": "INDUSTRIAL GARAGE / BELFAST",
    "stop_desc": "",
    "stop_lat": 45.412268,
    "stop_lon": -75.637402,
    "zone_id": "",
    "stop_url": "",
    "location_type": 0
  },
  {
    "stop_id": "AE815",
    "stop_code": 1187,
    "stop_name": "TRAINYARD MALL / ROAD TO BELFAST",
    "stop_desc": "",
    "stop_lat": 45.411482,
    "stop_lon": -75.639399,
    "zone_id": "",
    "stop_url": "",
    "location_type": 0
  },
  {
    "stop_id": "AE820",
    "stop_code": 1186,
    "stop_name": "TRAINYARD MALL / ROAD TO BELFAST",
    "stop_desc": "",
    "stop_lat": 45.411792,
    "stop_lon": -75.639365,
    "zone_id": "",
    "stop_url": "",
    "location_type": 0
  },
  {
    "stop_id": "AF075",
    "stop_code": 1868,
    "stop_name": "RIVERSIDE / TERMINAL",
    "stop_desc": "",
    "stop_lat": 45.412351,
    "stop_lon": -75.658982,
    "zone_id": "",
    "stop_url": "",
    "location_type": 0
  },
  {
    "stop_id": "AF080",
    "stop_code": 1869,
    "stop_name": "RIVERSIDE / TERMINAL",
    "stop_desc": "",
    "stop_lat": 45.412308,
    "stop_lon": -75.659683,
    "zone_id": "",
    "stop_url": "",
    "location_type": 0
  },
  {
    "stop_id": "AF100",
    "stop_code": 8552,
    "stop_name": "SANDFORD FLEMING / INDUSTRIAL",
    "stop_desc": "",
    "stop_lat": 45.41289,
    "stop_lon": -75.655675,
    "zone_id": "",
    "stop_url": "",
    "location_type": 0
  },
  {
    "stop_id": "AF105",
    "stop_code": 8626,
    "stop_name": "ALTA VISTA / ROLLAND",
    "stop_desc": "",
    "stop_lat": 45.411273,
    "stop_lon": -75.655929,
    "zone_id": "",
    "stop_url": "",
    "location_type": 0
  },
  {
    "stop_id": "AF110",
    "stop_code": 8544,
    "stop_name": "ALTA VISTA / CALEDON",
    "stop_desc": "",
    "stop_lat": 45.410311,
    "stop_lon": -75.65726,
    "zone_id": "",
    "stop_url": "",
    "location_type": 0
  },
  {
    "stop_id": "AF120",
    "stop_code": 8209,
    "stop_name": "ALTA VISTA / CALEDON",
    "stop_desc": "",
    "stop_lat": 45.410157,
    "stop_lon": -75.65716,
    "zone_id": "",
    "stop_url": "",
    "location_type": 0
  },
  {
    "stop_id": "AF130",
    "stop_code": 7164,
    "stop_name": "ALTA VISTA / DALE",
    "stop_desc": "",
    "stop_lat": 45.408788,
    "stop_lon": -75.658177,
    "zone_id": "",
    "stop_url": "",
    "location_type": 0
  },
  {
    "stop_id": "AF140",
    "stop_code": 7165,
    "stop_name": "ALTA VISTA / DORION",
    "stop_desc": "",
    "stop_lat": 45.408266,
    "stop_lon": -75.65821,
    "zone_id": "",
    "stop_url": "",
    "location_type": 0
  },
  {
    "stop_id": "AF150",
    "stop_code": 8219,
    "stop_name": "ALTA VISTA / DORION",
    "stop_desc": "",
    "stop_lat": 45.407828,
    "stop_lon": -75.658676,
    "zone_id": "",
    "stop_url": "",
    "location_type": 0
  },
  {
    "stop_id": "AF160",
    "stop_code": 7166,
    "stop_name": "ALTA VISTA / CLUNY",
    "stop_desc": "",
    "stop_lat": 45.405007,
    "stop_lon": -75.660228,
    "zone_id": "",
    "stop_url": "",
    "location_type": 0
  },
  {
    "stop_id": "AF170",
    "stop_code": 7167,
    "stop_name": "ALTA VISTA / BALFOUR",
    "stop_desc": "",
    "stop_lat": 45.405052,
    "stop_lon": -75.660442,
    "zone_id": "",
    "stop_url": "",
    "location_type": 0
  },
  {
    "stop_id": "AF180",
    "stop_code": 8220,
    "stop_name": "ALTA VISTA / VALOUR",
    "stop_desc": "",
    "stop_lat": 45.402785,
    "stop_lon": -75.661842,
    "zone_id": "",
    "stop_url": "",
    "location_type": 0
  },
  {
    "stop_id": "AF190",
    "stop_code": 8208,
    "stop_name": "ALTA VISTA / VALOUR",
    "stop_desc": "",
    "stop_lat": 45.402828,
    "stop_lon": -75.661561,
    "zone_id": "",
    "stop_url": "",
    "location_type": 0
  },
  {
    "stop_id": "AF210",
    "stop_code": 7170,
    "stop_name": "ALTA VISTA / SMYTH",
    "stop_desc": "",
    "stop_lat": 45.399726,
    "stop_lon": -75.661824,
    "zone_id": "",
    "stop_url": "",
    "location_type": 0
  },
  {
    "stop_id": "AF220",
    "stop_code": 7168,
    "stop_name": "ALTA VISTA / SMYTH",
    "stop_desc": "",
    "stop_lat": 45.400908,
    "stop_lon": -75.662304,
    "zone_id": "",
    "stop_url": "",
    "location_type": 0
  },
  {
    "stop_id": "AF230",
    "stop_code": 7169,
    "stop_name": "ALTA VISTA / SMYTH",
    "stop_desc": "",
    "stop_lat": 45.399223,
    "stop_lon": -75.661921,
    "zone_id": "",
    "stop_url": "",
    "location_type": 0
  },
  {
    "stop_id": "AF240",
    "stop_code": 8234,
    "stop_name": "SMYTH / ALTA VISTA",
    "stop_desc": "",
    "stop_lat": 45.398594,
    "stop_lon": -75.662045,
    "zone_id": "",
    "stop_url": "",
    "location_type": 0
  },
  {
    "stop_id": "AF270",
    "stop_code": 2401,
    "stop_name": "SMYTH / RIVERSIDE",
    "stop_desc": "",
    "stop_lat": 45.399044,
    "stop_lon": -75.667084,
    "zone_id": "",
    "stop_url": "",
    "location_type": 0
  },
  {
    "stop_id": "AF280",
    "stop_code": 7171,
    "stop_name": "SMYTH / RIVERSIDE",
    "stop_desc": "",
    "stop_lat": 45.398944,
    "stop_lon": -75.666957,
    "zone_id": "",
    "stop_url": "",
    "location_type": 0
  },
  {
    "stop_id": "AF300",
    "stop_code": 8300,
    "stop_name": "HOSPITAL LINK / ALTA VISTA",
    "stop_desc": "",
    "stop_lat": 45.403627,
    "stop_lon": -75.660975,
    "zone_id": "",
    "stop_url": "",
    "location_type": 0
  },
  {
    "stop_id": "AF305",
    "stop_code": 8301,
    "stop_name": "HOSPITAL LINK / ALTA VISTA",
    "stop_desc": "",
    "stop_lat": 45.403825,
    "stop_lon": -75.661394,
    "zone_id": "",
    "stop_url": "",
    "location_type": 0
  },
  {
    "stop_id": "AF910",
    "stop_code": 3023,
    "stop_name": "HURDMAN A",
    "stop_desc": "",
    "stop_lat": 45.412187,
    "stop_lon": -75.665044,
    "zone_id": "",
    "stop_url": "",
    "location_type": 0
  },
  {
    "stop_id": "AF920",
    "stop_code": 3023,
    "stop_name": "HURDMAN B",
    "stop_desc": "",
    "stop_lat": 45.412144,
    "stop_lon": -75.665557,
    "zone_id": "",
    "stop_url": "",
    "location_type": 0
  },
  {
    "stop_id": "AF930",
    "stop_code": 3023,
    "stop_name": "HURDMAN C",
    "stop_desc": "",
    "stop_lat": 45.412109,
    "stop_lon": -75.66632,
    "zone_id": "",
    "stop_url": "",
    "location_type": 0
  },
  {
    "stop_id": "AF940",
    "stop_code": 3023,
    "stop_name": "HURDMAN D",
    "stop_desc": "",
    "stop_lat": 45.412082,
    "stop_lon": -75.666889,
    "zone_id": "",
    "stop_url": "",
    "location_type": 0
  },
  {
    "stop_id": "AF965",
    "stop_code": 3030,
    "stop_name": "LYCÉE CLAUDEL 1A",
    "stop_desc": "",
    "stop_lat": 45.40663,
    "stop_lon": -75.66447,
    "zone_id": "",
    "stop_url": "",
    "location_type": 0
  },
  {
    "stop_id": "AF970",
    "stop_code": 3030,
    "stop_name": "LYCÉE CLAUDEL 2A",
    "stop_desc": "",
    "stop_lat": 45.406614,
    "stop_lon": -75.664225,
    "zone_id": "",
    "stop_url": "",
    "location_type": 0
  },
  {
    "stop_id": "AF975",
    "stop_code": 3031,
    "stop_name": "SMYTH 1A",
    "stop_desc": "",
    "stop_lat": 45.40118,
    "stop_lon": -75.666742,
    "zone_id": "",
    "stop_url": "",
    "location_type": 0
  },
  {
    "stop_id": "AF980",
    "stop_code": 3031,
    "stop_name": "SMYTH 2A",
    "stop_desc": "",
    "stop_lat": 45.401167,
    "stop_lon": -75.666591,
    "zone_id": "",
    "stop_url": "",
    "location_type": 0
  },
  {
    "stop_id": "AG040",
    "stop_code": 8555,
    "stop_name": "RIVERSIDE / PLEASANT PARK",
    "stop_desc": "",
    "stop_lat": 45.393045,
    "stop_lon": -75.672383,
    "zone_id": "",
    "stop_url": "",
    "location_type": 0
  },
  {
    "stop_id": "AG105",
    "stop_code": 8216,
    "stop_name": "PLEASANT PARK / CABOT",
    "stop_desc": "",
    "stop_lat": 45.392779,
    "stop_lon": -75.671684,
    "zone_id": "",
    "stop_url": "",
    "location_type": 0
  },
  {
    "stop_id": "AG120",
    "stop_code": 2327,
    "stop_name": "PLEASANT PARK / CABOT",
    "stop_desc": "",
    "stop_lat": 45.39268,
    "stop_lon": -75.671647,
    "zone_id": "",
    "stop_url": "",
    "location_type": 0
  },
  {
    "stop_id": "AG150",
    "stop_code": 8240,
    "stop_name": "PLEASANT PARK / CAVENDISH",
    "stop_desc": "",
    "stop_lat": 45.392975,
    "stop_lon": -75.665295,
    "zone_id": "",
    "stop_url": "",
    "location_type": 0
  },
  {
    "stop_id": "AG160",
    "stop_code": 8242,
    "stop_name": "PLEASANT PARK / CAVENDISH",
    "stop_desc": "",
    "stop_lat": 45.392805,
    "stop_lon": -75.665336,
    "zone_id": "",
    "stop_url": "",
    "location_type": 0
  },
  {
    "stop_id": "AG180",
    "stop_code": 7173,
    "stop_name": "PLEASANT PARK / ALTA VISTA",
    "stop_desc": "",
    "stop_lat": 45.39302,
    "stop_lon": -75.662791,
    "zone_id": "",
    "stop_url": "",
    "location_type": 0
  },
  {
    "stop_id": "AG190",
    "stop_code": 8207,
    "stop_name": "ALTA VISTA / SMYTH",
    "stop_desc": "",
    "stop_lat": 45.398068,
    "stop_lon": -75.661542,
    "zone_id": "",
    "stop_url": "",
    "location_type": 0
  },
  {
    "stop_id": "AG200",
    "stop_code": 7174,
    "stop_name": "ALTA VISTA / CRESTVIEW",
    "stop_desc": "",
    "stop_lat": 45.396354,
    "stop_lon": -75.66218,
    "zone_id": "",
    "stop_url": "",
    "location_type": 0
  },
  {
    "stop_id": "AG210",
    "stop_code": 8228,
    "stop_name": "ALTA VISTA / CRESTVIEW",
    "stop_desc": "",
    "stop_lat": 45.395602,
    "stop_lon": -75.662689,
    "zone_id": "",
    "stop_url": "",
    "location_type": 0
  },
  {
    "stop_id": "AG220",
    "stop_code": 7175,
    "stop_name": "ALTA VISTA / BILLINGS",
    "stop_desc": "",
    "stop_lat": 45.394549,
    "stop_lon": -75.662679,
    "zone_id": "",
    "stop_url": "",
    "location_type": 0
  },
  {
    "stop_id": "AG240",
    "stop_code": 8206,
    "stop_name": "ALTA VISTA / PLEASANT PARK",
    "stop_desc": "",
    "stop_lat": 45.393432,
    "stop_lon": -75.662594,
    "zone_id": "",
    "stop_url": "",
    "location_type": 0
  },
  {
    "stop_id": "AG250",
    "stop_code": 7176,
    "stop_name": "ALTA VISTA / PLEASANT PARK",
    "stop_desc": "",
    "stop_lat": 45.393172,
    "stop_lon": -75.662687,
    "zone_id": "",
    "stop_url": "",
    "location_type": 0
  },
  {
    "stop_id": "AG260",
    "stop_code": 8227,
    "stop_name": "ALTA VISTA / MOUNTBATTEN",
    "stop_desc": "",
    "stop_lat": 45.391694,
    "stop_lon": -75.662415,
    "zone_id": "",
    "stop_url": "",
    "location_type": 0
  },
  {
    "stop_id": "AG270",
    "stop_code": "0837",
    "stop_name": "ALTA VISTA / SUMMIT",
    "stop_desc": "",
    "stop_lat": 45.391359,
    "stop_lon": -75.662126,
    "zone_id": "",
    "stop_url": "",
    "location_type": 0
  },
  {
    "stop_id": "AG280",
    "stop_code": 7178,
    "stop_name": "ALTA VISTA / CUNNINGHAM",
    "stop_desc": "",
    "stop_lat": 45.389285,
    "stop_lon": -75.662732,
    "zone_id": "",
    "stop_url": "",
    "location_type": 0
  },
  {
    "stop_id": "AG290",
    "stop_code": 7177,
    "stop_name": "ALTA VISTA / CUNNINGHAM",
    "stop_desc": "",
    "stop_lat": 45.388676,
    "stop_lon": -75.663085,
    "zone_id": "",
    "stop_url": "",
    "location_type": 0
  },
  {
    "stop_id": "AG300",
    "stop_code": 5851,
    "stop_name": "ALTA VISTA / KILBORN",
    "stop_desc": "",
    "stop_lat": 45.38673,
    "stop_lon": -75.662833,
    "zone_id": "",
    "stop_url": "",
    "location_type": 0
  },
  {
    "stop_id": "AG310",
    "stop_code": 5705,
    "stop_name": "ALTA VISTA / KILBORN",
    "stop_desc": "",
    "stop_lat": 45.386503,
    "stop_lon": -75.662568,
    "zone_id": "",
    "stop_url": "",
    "location_type": 0
  },
  {
    "stop_id": "AG320",
    "stop_code": 8226,
    "stop_name": "ALTA VISTA / ORILLIA",
    "stop_desc": "",
    "stop_lat": 45.385244,
    "stop_lon": -75.6626,
    "zone_id": "",
    "stop_url": "",
    "location_type": 0
  },
  {
    "stop_id": "AG330",
    "stop_code": 5709,
    "stop_name": "ALTA VISTA / CLONTARF",
    "stop_desc": "",
    "stop_lat": 45.38508,
    "stop_lon": -75.662423,
    "zone_id": "",
    "stop_url": "",
    "location_type": 0
  },
  {
    "stop_id": "AG340",
    "stop_code": 7180,
    "stop_name": "ALTA VISTA / RANDALL",
    "stop_desc": "",
    "stop_lat": 45.383837,
    "stop_lon": -75.662199,
    "zone_id": "",
    "stop_url": "",
    "location_type": 0
  },
  {
    "stop_id": "AG350",
    "stop_code": 7179,
    "stop_name": "ALTA VISTA / RANDALL",
    "stop_desc": "",
    "stop_lat": 45.382883,
    "stop_lon": -75.662213,
    "zone_id": "",
    "stop_url": "",
    "location_type": 0
  },
  {
    "stop_id": "AG360",
    "stop_code": 8422,
    "stop_name": "ALTA VISTA / PALEN",
    "stop_desc": "",
    "stop_lat": 45.382052,
    "stop_lon": -75.661804,
    "zone_id": "",
    "stop_url": "",
    "location_type": 0
  },
  {
    "stop_id": "AG370",
    "stop_code": 8423,
    "stop_name": "ALTA VISTA / WESMAR",
    "stop_desc": "",
    "stop_lat": 45.381747,
    "stop_lon": -75.661898,
    "zone_id": "",
    "stop_url": "",
    "location_type": 0
  },
  {
    "stop_id": "AG380",
    "stop_code": 7181,
    "stop_name": "ALTA VISTA / WESMAR",
    "stop_desc": "",
    "stop_lat": 45.379863,
    "stop_lon": -75.661441,
    "zone_id": "",
    "stop_url": "",
    "location_type": 0
  },
  {
    "stop_id": "AG480",
    "stop_code": 8231,
    "stop_name": "HERON / ALTA VISTA",
    "stop_desc": "",
    "stop_lat": 45.379039,
    "stop_lon": -75.661912,
    "zone_id": "",
    "stop_url": "",
    "location_type": 0
  },
  {
    "stop_id": "AG500",
    "stop_code": 7187,
    "stop_name": "HERON / EVANS",
    "stop_desc": "",
    "stop_lat": 45.378899,
    "stop_lon": -75.664554,
    "zone_id": "",
    "stop_url": "",
    "location_type": 0
  },
  {
    "stop_id": "AG510",
    "stop_code": 8427,
    "stop_name": "HERON/EDGEHILL",
    "stop_desc": "",
    "stop_lat": 45.378725,
    "stop_lon": -75.664598,
    "zone_id": "",
    "stop_url": "",
    "location_type": 0
  },
  {
    "stop_id": "AG520",
    "stop_code": 8286,
    "stop_name": "HERON / BANK",
    "stop_desc": "",
    "stop_lat": 45.378769,
    "stop_lon": -75.666845,
    "zone_id": "",
    "stop_url": "",
    "location_type": 0
  },
  {
    "stop_id": "AG525",
    "stop_code": 1166,
    "stop_name": "HERON / BANK",
    "stop_desc": "",
    "stop_lat": 45.378527,
    "stop_lon": -75.666964,
    "zone_id": "",
    "stop_url": "",
    "location_type": 0
  },
  {
    "stop_id": "AG540",
    "stop_code": 8225,
    "stop_name": "KILBORN / ALTA VISTA",
    "stop_desc": "",
    "stop_lat": 45.386551,
    "stop_lon": -75.662951,
    "zone_id": "",
    "stop_url": "",
    "location_type": 0
  },
  {
    "stop_id": "AG550",
    "stop_code": 7189,
    "stop_name": "KILBORN / LILAC",
    "stop_desc": "",
    "stop_lat": 45.386352,
    "stop_lon": -75.665303,
    "zone_id": "",
    "stop_url": "",
    "location_type": 0
  },
  {
    "stop_id": "AG560",
    "stop_code": 7188,
    "stop_name": "KILBORN / LILAC",
    "stop_desc": "",
    "stop_lat": 45.386479,
    "stop_lon": -75.665442,
    "zone_id": "",
    "stop_url": "",
    "location_type": 0
  },
  {
    "stop_id": "AG570",
    "stop_code": 8224,
    "stop_name": "KILBORN / BEAVER",
    "stop_desc": "",
    "stop_lat": 45.386197,
    "stop_lon": -75.667489,
    "zone_id": "",
    "stop_url": "",
    "location_type": 0
  },
  {
    "stop_id": "AG580",
    "stop_code": 8203,
    "stop_name": "KILBORN / BLOSSOM",
    "stop_desc": "",
    "stop_lat": 45.386212,
    "stop_lon": -75.669532,
    "zone_id": "",
    "stop_url": "",
    "location_type": 0
  },
  {
    "stop_id": "AG590",
    "stop_code": 7190,
    "stop_name": "KILBORN / UTAH",
    "stop_desc": "",
    "stop_lat": 45.386033,
    "stop_lon": -75.669663,
    "zone_id": "",
    "stop_url": "",
    "location_type": 0
  },
  {
    "stop_id": "AG600",
    "stop_code": 7192,
    "stop_name": "LAMIRA / ROONEY'S LANE",
    "stop_desc": "",
    "stop_lat": 45.385133,
    "stop_lon": -75.670889,
    "zone_id": "",
    "stop_url": "",
    "location_type": 0
  },
  {
    "stop_id": "AG610",
    "stop_code": 7191,
    "stop_name": "LAMIRA / ROONEY'S LANE",
    "stop_desc": "",
    "stop_lat": 45.384548,
    "stop_lon": -75.670885,
    "zone_id": "",
    "stop_url": "",
    "location_type": 0
  },
  {
    "stop_id": "AG900",
    "stop_code": 3032,
    "stop_name": "RIVERSIDE 2A",
    "stop_desc": "",
    "stop_lat": 45.39677,
    "stop_lon": -75.669226,
    "zone_id": "",
    "stop_url": "",
    "location_type": 0
  },
  {
    "stop_id": "AG910",
    "stop_code": 3032,
    "stop_name": "RIVERSIDE 1A",
    "stop_desc": "",
    "stop_lat": 45.396702,
    "stop_lon": -75.669491,
    "zone_id": "",
    "stop_url": "",
    "location_type": 0
  },
  {
    "stop_id": "AG920",
    "stop_code": 3033,
    "stop_name": "PLEASANT PARK 2A",
    "stop_desc": "",
    "stop_lat": 45.392725,
    "stop_lon": -75.669233,
    "zone_id": "",
    "stop_url": "",
    "location_type": 0
  },
  {
    "stop_id": "AG930",
    "stop_code": 3033,
    "stop_name": "PLEASANT PARK 1A",
    "stop_desc": "",
    "stop_lat": 45.392908,
    "stop_lon": -75.669456,
    "zone_id": "",
    "stop_url": "",
    "location_type": 0
  },
  {
    "stop_id": "AG940",
    "stop_code": 3033,
    "stop_name": "PLEASANT PARK 4A",
    "stop_desc": "",
    "stop_lat": 45.392787,
    "stop_lon": -75.669117,
    "zone_id": "",
    "stop_url": "",
    "location_type": 0
  },
  {
    "stop_id": "AG950",
    "stop_code": 3033,
    "stop_name": "PLEASANT PARK 3A",
    "stop_desc": "",
    "stop_lat": 45.392755,
    "stop_lon": -75.669615,
    "zone_id": "",
    "stop_url": "",
    "location_type": 0
  },
  {
    "stop_id": "AH010",
    "stop_code": 8384,
    "stop_name": "WALKLEY / BANK",
    "stop_desc": "",
    "stop_lat": 45.370585,
    "stop_lon": -75.662663,
    "zone_id": "",
    "stop_url": "",
    "location_type": 0
  },
  {
    "stop_id": "AH020",
    "stop_code": 8404,
    "stop_name": "WALKLEY / BANFF",
    "stop_desc": "",
    "stop_lat": 45.371198,
    "stop_lon": -75.661505,
    "zone_id": "",
    "stop_url": "",
    "location_type": 0
  },
  {
    "stop_id": "AH030",
    "stop_code": 7193,
    "stop_name": "WALKLEY / SIBLINGS",
    "stop_desc": "",
    "stop_lat": 45.37168,
    "stop_lon": -75.659812,
    "zone_id": "",
    "stop_url": "",
    "location_type": 0
  },
  {
    "stop_id": "AH040",
    "stop_code": 7195,
    "stop_name": "WALKLEY / HAMPSTEAD",
    "stop_desc": "",
    "stop_lat": 45.371976,
    "stop_lon": -75.659642,
    "zone_id": "",
    "stop_url": "",
    "location_type": 0
  },
  {
    "stop_id": "AH050",
    "stop_code": 7194,
    "stop_name": "WALKLEY / HAMPSTEAD",
    "stop_desc": "",
    "stop_lat": 45.372387,
    "stop_lon": -75.658078,
    "zone_id": "",
    "stop_url": "",
    "location_type": 0
  },
  {
    "stop_id": "AH060",
    "stop_code": 7196,
    "stop_name": "WALKLEY / JASPER",
    "stop_desc": "",
    "stop_lat": 45.373063,
    "stop_lon": -75.656894,
    "zone_id": "",
    "stop_url": "",
    "location_type": 0
  },
  {
    "stop_id": "AH090",
    "stop_code": 8390,
    "stop_name": "WALKLEY / JASPER",
    "stop_desc": "",
    "stop_lat": 45.373148,
    "stop_lon": -75.656344,
    "zone_id": "",
    "stop_url": "",
    "location_type": 0
  },
  {
    "stop_id": "AH095",
    "stop_code": 7197,
    "stop_name": "ALBION / WALKLEY",
    "stop_desc": "",
    "stop_lat": 45.372818,
    "stop_lon": -75.653764,
    "zone_id": "",
    "stop_url": "",
    "location_type": 0
  },
  {
    "stop_id": "AH110",
    "stop_code": 8536,
    "stop_name": "WALKLEY / BAYCREST",
    "stop_desc": "",
    "stop_lat": 45.376375,
    "stop_lon": -75.64852,
    "zone_id": "",
    "stop_url": "",
    "location_type": 0
  },
  {
    "stop_id": "AH115",
    "stop_code": 7198,
    "stop_name": "WALKLEY / HEATHERINGTON",
    "stop_desc": "",
    "stop_lat": 45.377709,
    "stop_lon": -75.645244,
    "zone_id": "",
    "stop_url": "",
    "location_type": 0
  },
  {
    "stop_id": "AH120",
    "stop_code": 5818,
    "stop_name": "WALKLEY / AD. 1570",
    "stop_desc": "",
    "stop_lat": 45.376528,
    "stop_lon": -75.648479,
    "zone_id": "",
    "stop_url": "",
    "location_type": 0
  },
  {
    "stop_id": "AH125",
    "stop_code": 1087,
    "stop_name": "WALKLEY / HEATHERINGTON",
    "stop_desc": "",
    "stop_lat": 45.377827,
    "stop_lon": -75.64537,
    "zone_id": "",
    "stop_url": "",
    "location_type": 0
  },
  {
    "stop_id": "AH130",
    "stop_code": 8387,
    "stop_name": "WALKLEY / HEATHERINGTON",
    "stop_desc": "",
    "stop_lat": 45.378097,
    "stop_lon": -75.64414,
    "zone_id": "",
    "stop_url": "",
    "location_type": 0
  },
  {
    "stop_id": "AH140",
    "stop_code": 8399,
    "stop_name": "WALKLEY / AD. 1680",
    "stop_desc": "",
    "stop_lat": 45.378826,
    "stop_lon": -75.642929,
    "zone_id": "",
    "stop_url": "",
    "location_type": 0
  },
  {
    "stop_id": "AH160",
    "stop_code": 7201,
    "stop_name": "WALKLEY / HERON",
    "stop_desc": "",
    "stop_lat": 45.37931,
    "stop_lon": -75.641555,
    "zone_id": "",
    "stop_url": "",
    "location_type": 0
  },
  {
    "stop_id": "AH170",
    "stop_code": 7199,
    "stop_name": "WALKLEY / HERON",
    "stop_desc": "",
    "stop_lat": 45.379121,
    "stop_lon": -75.641494,
    "zone_id": "",
    "stop_url": "",
    "location_type": 0
  },
  {
    "stop_id": "AH180",
    "stop_code": 7202,
    "stop_name": "WALKLEY / HOLLY",
    "stop_desc": "",
    "stop_lat": 45.379938,
    "stop_lon": -75.640013,
    "zone_id": "",
    "stop_url": "",
    "location_type": 0
  },
  {
    "stop_id": "AH190",
    "stop_code": 7200,
    "stop_name": "WALKLEY / HOLLY",
    "stop_desc": "",
    "stop_lat": 45.379766,
    "stop_lon": -75.639939,
    "zone_id": "",
    "stop_url": "",
    "location_type": 0
  },
  {
    "stop_id": "AH220",
    "stop_code": 5806,
    "stop_name": "HEATHERINGTON / FAIRLEA",
    "stop_desc": "",
    "stop_lat": 45.377525,
    "stop_lon": -75.644608,
    "zone_id": "",
    "stop_url": "",
    "location_type": 0
  },
  {
    "stop_id": "AH230",
    "stop_code": 8400,
    "stop_name": "HEATHERINGTON / FAIRLEA",
    "stop_desc": "",
    "stop_lat": 45.376434,
    "stop_lon": -75.644226,
    "zone_id": "",
    "stop_url": "",
    "location_type": 0
  },
  {
    "stop_id": "AH240",
    "stop_code": 7203,
    "stop_name": "HEATHERINGTON / ANGELA",
    "stop_desc": "",
    "stop_lat": 45.375061,
    "stop_lon": -75.643662,
    "zone_id": "",
    "stop_url": "",
    "location_type": 0
  },
  {
    "stop_id": "AH250",
    "stop_code": 8386,
    "stop_name": "HEATHERINGTON / FAIRLEA",
    "stop_desc": "",
    "stop_lat": 45.375158,
    "stop_lon": -75.643482,
    "zone_id": "",
    "stop_url": "",
    "location_type": 0
  },
  {
    "stop_id": "AH260",
    "stop_code": 7204,
    "stop_name": "HEATHERINGTON / BANNERHILL",
    "stop_desc": "",
    "stop_lat": 45.373968,
    "stop_lon": -75.644279,
    "zone_id": "",
    "stop_url": "",
    "location_type": 0
  },
  {
    "stop_id": "AH270",
    "stop_code": 7205,
    "stop_name": "HEATHERINGTON / BANNERHILL",
    "stop_desc": "",
    "stop_lat": 45.373726,
    "stop_lon": -75.64441,
    "zone_id": "",
    "stop_url": "",
    "location_type": 0
  },
  {
    "stop_id": "AH280",
    "stop_code": 8401,
    "stop_name": "HEATHERINGTON / AD. 1560",
    "stop_desc": "",
    "stop_lat": 45.373087,
    "stop_lon": -75.64811,
    "zone_id": "",
    "stop_url": "",
    "location_type": 0
  },
  {
    "stop_id": "AH290",
    "stop_code": 8385,
    "stop_name": "HEATHERINGTON / AD. 1535",
    "stop_desc": "",
    "stop_lat": 45.373028,
    "stop_lon": -75.648634,
    "zone_id": "",
    "stop_url": "",
    "location_type": 0
  },
  {
    "stop_id": "AH300",
    "stop_code": 7206,
    "stop_name": "HEATHERINGTON / AD. 1476",
    "stop_desc": "",
    "stop_lat": 45.373373,
    "stop_lon": -75.650212,
    "zone_id": "",
    "stop_url": "",
    "location_type": 0
  },
  {
    "stop_id": "AH310",
    "stop_code": 7208,
    "stop_name": "HEATHERINGTON / AD. 1485",
    "stop_desc": "",
    "stop_lat": 45.373229,
    "stop_lon": -75.650189,
    "zone_id": "",
    "stop_url": "",
    "location_type": 0
  },
  {
    "stop_id": "AH320",
    "stop_code": 7207,
    "stop_name": "HEATHERINGTON / AD. 1455",
    "stop_desc": "",
    "stop_lat": 45.372835,
    "stop_lon": -75.651739,
    "zone_id": "",
    "stop_url": "",
    "location_type": 0
  },
  {
    "stop_id": "AH330",
    "stop_code": 7209,
    "stop_name": "HEATHERINGTON / AD. 1455",
    "stop_desc": "",
    "stop_lat": 45.372744,
    "stop_lon": -75.651498,
    "zone_id": "",
    "stop_url": "",
    "location_type": 0
  },
  {
    "stop_id": "AH340",
    "stop_code": 8402,
    "stop_name": "HEATHERINGTON / ALBION",
    "stop_desc": "",
    "stop_lat": 45.372288,
    "stop_lon": -75.653126,
    "zone_id": "",
    "stop_url": "",
    "location_type": 0
  },
  {
    "stop_id": "AH350",
    "stop_code": 7210,
    "stop_name": "HEATHERINGTON / ALBION",
    "stop_desc": "",
    "stop_lat": 45.37224,
    "stop_lon": -75.652731,
    "zone_id": "",
    "stop_url": "",
    "location_type": 0
  },
  {
    "stop_id": "AH360",
    "stop_code": 8403,
    "stop_name": "ALBION / WALKLEY",
    "stop_desc": "",
    "stop_lat": 45.373834,
    "stop_lon": -75.654137,
    "zone_id": "",
    "stop_url": "",
    "location_type": 0
  },
  {
    "stop_id": "AH470",
    "stop_code": 5899,
    "stop_name": "BAYCREST / HERON",
    "stop_desc": "",
    "stop_lat": 45.379007,
    "stop_lon": -75.652732,
    "zone_id": "",
    "stop_url": "",
    "location_type": 0
  },
  {
    "stop_id": "AH480",
    "stop_code": 1917,
    "stop_name": "BAYCREST / HERON",
    "stop_desc": "",
    "stop_lat": 45.37916,
    "stop_lon": -75.652692,
    "zone_id": "",
    "stop_url": "",
    "location_type": 0
  },
  {
    "stop_id": "AH490",
    "stop_code": 5880,
    "stop_name": "BAYCREST / CEDARWOOD",
    "stop_desc": "",
    "stop_lat": 45.377509,
    "stop_lon": -75.650993,
    "zone_id": "",
    "stop_url": "",
    "location_type": 0
  },
  {
    "stop_id": "AH500",
    "stop_code": 2394,
    "stop_name": "BAYCREST / CEDARWOOD",
    "stop_desc": "",
    "stop_lat": 45.377673,
    "stop_lon": -75.651182,
    "zone_id": "",
    "stop_url": "",
    "location_type": 0
  },
  {
    "stop_id": "AH510",
    "stop_code": 1924,
    "stop_name": "BAYCREST / WALKLEY",
    "stop_desc": "",
    "stop_lat": 45.376518,
    "stop_lon": -75.649629,
    "zone_id": "",
    "stop_url": "",
    "location_type": 0
  },
  {
    "stop_id": "AI010",
    "stop_code": 8937,
    "stop_name": "KILBORN / ALTA VISTA",
    "stop_desc": "",
    "stop_lat": 45.386719,
    "stop_lon": -75.66254,
    "zone_id": "",
    "stop_url": "",
    "location_type": 0
  },
  {
    "stop_id": "AI030",
    "stop_code": 8201,
    "stop_name": "KILBORN / BRAESIDE",
    "stop_desc": "",
    "stop_lat": 45.386884,
    "stop_lon": -75.660468,
    "zone_id": "",
    "stop_url": "",
    "location_type": 0
  },
  {
    "stop_id": "AI040",
    "stop_code": 8307,
    "stop_name": "KILBORN / BRAESIDE",
    "stop_desc": "",
    "stop_lat": 45.38673,
    "stop_lon": -75.660317,
    "zone_id": "",
    "stop_url": "",
    "location_type": 0
  },
  {
    "stop_id": "AI050",
    "stop_code": 7213,
    "stop_name": "KILBORN / WEBSTER",
    "stop_desc": "",
    "stop_lat": 45.387119,
    "stop_lon": -75.65703,
    "zone_id": "",
    "stop_url": "",
    "location_type": 0
  },
  {
    "stop_id": "AI060",
    "stop_code": 7211,
    "stop_name": "KILBORN / WEBSTER",
    "stop_desc": "",
    "stop_lat": 45.386966,
    "stop_lon": -75.656981,
    "zone_id": "",
    "stop_url": "",
    "location_type": 0
  },
  {
    "stop_id": "AI070",
    "stop_code": 8200,
    "stop_name": "KILBORN / PROSPECT",
    "stop_desc": "",
    "stop_lat": 45.387308,
    "stop_lon": -75.654511,
    "zone_id": "",
    "stop_url": "",
    "location_type": 0
  },
  {
    "stop_id": "AI080",
    "stop_code": 7212,
    "stop_name": "KILBORN / PROSPECT",
    "stop_desc": "",
    "stop_lat": 45.387121,
    "stop_lon": -75.654808,
    "zone_id": "",
    "stop_url": "",
    "location_type": 0
  },
  {
    "stop_id": "AI090",
    "stop_code": 7214,
    "stop_name": "KILBORN / FEATHERSTON",
    "stop_desc": "",
    "stop_lat": 45.387502,
    "stop_lon": -75.651558,
    "zone_id": "",
    "stop_url": "",
    "location_type": 0
  },
  {
    "stop_id": "AI100",
    "stop_code": 8415,
    "stop_name": "KILBORN / FEATHERSTON",
    "stop_desc": "",
    "stop_lat": 45.387348,
    "stop_lon": -75.651407,
    "zone_id": "",
    "stop_url": "",
    "location_type": 0
  },
  {
    "stop_id": "AI110",
    "stop_code": 7215,
    "stop_name": "KILBORN / PLAYFAIR",
    "stop_desc": "",
    "stop_lat": 45.387658,
    "stop_lon": -75.649513,
    "zone_id": "",
    "stop_url": "",
    "location_type": 0
  },
  {
    "stop_id": "AI120",
    "stop_code": 7216,
    "stop_name": "KILBORN / PLAYFAIR",
    "stop_desc": "",
    "stop_lat": 45.387495,
    "stop_lon": -75.649375,
    "zone_id": "",
    "stop_url": "",
    "location_type": 0
  },
  {
    "stop_id": "AI140",
    "stop_code": 7227,
    "stop_name": "KILBORN / VIRGINIA",
    "stop_desc": "",
    "stop_lat": 45.387897,
    "stop_lon": -75.645461,
    "zone_id": "",
    "stop_url": "",
    "location_type": 0
  },
  {
    "stop_id": "AI150",
    "stop_code": 8416,
    "stop_name": "KILBORN / VIRGINIA",
    "stop_desc": "",
    "stop_lat": 45.387912,
    "stop_lon": -75.643826,
    "zone_id": "",
    "stop_url": "",
    "location_type": 0
  },
  {
    "stop_id": "AI160",
    "stop_code": 8418,
    "stop_name": "KILBORN / BEAUMONT",
    "stop_desc": "",
    "stop_lat": 45.388097,
    "stop_lon": -75.643287,
    "zone_id": "",
    "stop_url": "",
    "location_type": 0
  },
  {
    "stop_id": "AI170",
    "stop_code": 7229,
    "stop_name": "KILBORN / DELMAR",
    "stop_desc": "",
    "stop_lat": 45.388309,
    "stop_lon": -75.640321,
    "zone_id": "",
    "stop_url": "",
    "location_type": 0
  },
  {
    "stop_id": "AI180",
    "stop_code": 7228,
    "stop_name": "KILBORN / DELMAR",
    "stop_desc": "",
    "stop_lat": 45.388162,
    "stop_lon": -75.639953,
    "zone_id": "",
    "stop_url": "",
    "location_type": 0
  },
  {
    "stop_id": "AI190",
    "stop_code": 7230,
    "stop_name": "KILBORN / FEATHERSTON",
    "stop_desc": "",
    "stop_lat": 45.388393,
    "stop_lon": -75.638404,
    "zone_id": "",
    "stop_url": "",
    "location_type": 0
  },
  {
    "stop_id": "AI200",
    "stop_code": 8911,
    "stop_name": "KILBORN / FEATHERSTON",
    "stop_desc": "",
    "stop_lat": 45.388396,
    "stop_lon": -75.637625,
    "zone_id": "",
    "stop_url": "",
    "location_type": 0
  },
  {
    "stop_id": "AI230",
    "stop_code": 8333,
    "stop_name": "KILBORN / HAIG",
    "stop_desc": "",
    "stop_lat": 45.389388,
    "stop_lon": -75.635515,
    "zone_id": "",
    "stop_url": "",
    "location_type": 0
  },
  {
    "stop_id": "AI240",
    "stop_code": 8331,
    "stop_name": "KILBORN / HAIG",
    "stop_desc": "",
    "stop_lat": 45.389307,
    "stop_lon": -75.63544,
    "zone_id": "",
    "stop_url": "",
    "location_type": 0
  },
  {
    "stop_id": "AI295",
    "stop_code": 8414,
    "stop_name": "FEATHERSTON / RYDER",
    "stop_desc": "",
    "stop_lat": 45.384251,
    "stop_lon": -75.636858,
    "zone_id": "",
    "stop_url": "",
    "location_type": 0
  },
  {
    "stop_id": "AI300",
    "stop_code": 8411,
    "stop_name": "FEATHERSTON / RYDER",
    "stop_desc": "",
    "stop_lat": 45.384537,
    "stop_lon": -75.636636,
    "zone_id": "",
    "stop_url": "",
    "location_type": 0
  },
  {
    "stop_id": "AI310",
    "stop_code": 7219,
    "stop_name": "FEATHERSTON / CONNECTICUT",
    "stop_desc": "",
    "stop_lat": 45.383558,
    "stop_lon": -75.639141,
    "zone_id": "",
    "stop_url": "",
    "location_type": 0
  },
  {
    "stop_id": "AI320",
    "stop_code": 1353,
    "stop_name": "FEATHERSTON / CONNECTICUT",
    "stop_desc": "",
    "stop_lat": 45.383403,
    "stop_lon": -75.63899,
    "zone_id": "",
    "stop_url": "",
    "location_type": 0
  },
  {
    "stop_id": "AI330",
    "stop_code": 8410,
    "stop_name": "FEATHERSTON / VIRGINIA",
    "stop_desc": "",
    "stop_lat": 45.383197,
    "stop_lon": -75.642595,
    "zone_id": "",
    "stop_url": "",
    "location_type": 0
  },
  {
    "stop_id": "AI340",
    "stop_code": 7220,
    "stop_name": "FEATHERSTON / VIRGINIA",
    "stop_desc": "",
    "stop_lat": 45.383228,
    "stop_lon": -75.643156,
    "zone_id": "",
    "stop_url": "",
    "location_type": 0
  },
  {
    "stop_id": "AI350",
    "stop_code": 7221,
    "stop_name": "FEATHERSTON / JEFFERSON",
    "stop_desc": "",
    "stop_lat": 45.383181,
    "stop_lon": -75.644165,
    "zone_id": "",
    "stop_url": "",
    "location_type": 0
  },
  {
    "stop_id": "AI360",
    "stop_code": 7223,
    "stop_name": "JEFFERSON / FEATHERSTON",
    "stop_desc": "",
    "stop_lat": 45.382934,
    "stop_lon": -75.644731,
    "zone_id": "",
    "stop_url": "",
    "location_type": 0
  },
  {
    "stop_id": "AI370",
    "stop_code": 7222,
    "stop_name": "JEFFERSON / ARIZONA",
    "stop_desc": "",
    "stop_lat": 45.381655,
    "stop_lon": -75.644623,
    "zone_id": "",
    "stop_url": "",
    "location_type": 0
  },
  {
    "stop_id": "AI380",
    "stop_code": 7224,
    "stop_name": "JEFFERSON / HERON",
    "stop_desc": "",
    "stop_lat": 45.38069,
    "stop_lon": -75.644318,
    "zone_id": "",
    "stop_url": "",
    "location_type": 0
  },
  {
    "stop_id": "AI400",
    "stop_code": 8398,
    "stop_name": "RYDER / WALKLEY",
    "stop_desc": "",
    "stop_lat": 45.382486,
    "stop_lon": -75.634318,
    "zone_id": "",
    "stop_url": "",
    "location_type": 0
  },
  {
    "stop_id": "AI450",
    "stop_code": 5823,
    "stop_name": "HERON / JEFFERSON",
    "stop_desc": "",
    "stop_lat": 45.38028,
    "stop_lon": -75.644886,
    "zone_id": "",
    "stop_url": "",
    "location_type": 0
  },
  {
    "stop_id": "AI460",
    "stop_code": 8393,
    "stop_name": "HERON / SANDALWOOD",
    "stop_desc": "",
    "stop_lat": 45.37982,
    "stop_lon": -75.648366,
    "zone_id": "",
    "stop_url": "",
    "location_type": 0
  },
  {
    "stop_id": "AI470",
    "stop_code": 8818,
    "stop_name": "HERON / BRIARHILL",
    "stop_desc": "",
    "stop_lat": 45.379937,
    "stop_lon": -75.649565,
    "zone_id": "",
    "stop_url": "",
    "location_type": 0
  },
  {
    "stop_id": "AI480",
    "stop_code": 8397,
    "stop_name": "HERON / BAYCREST",
    "stop_desc": "",
    "stop_lat": 45.379659,
    "stop_lon": -75.653348,
    "zone_id": "",
    "stop_url": "",
    "location_type": 0
  },
  {
    "stop_id": "AI490",
    "stop_code": 4083,
    "stop_name": "HERON / BAYCREST",
    "stop_desc": "",
    "stop_lat": 45.379544,
    "stop_lon": -75.652328,
    "zone_id": "",
    "stop_url": "",
    "location_type": 0
  },
  {
    "stop_id": "AI500",
    "stop_code": 7225,
    "stop_name": "HERON / FINN",
    "stop_desc": "",
    "stop_lat": 45.379449,
    "stop_lon": -75.656544,
    "zone_id": "",
    "stop_url": "",
    "location_type": 0
  },
  {
    "stop_id": "AI510",
    "stop_code": 8392,
    "stop_name": "HERON / FINN",
    "stop_desc": "",
    "stop_lat": 45.379331,
    "stop_lon": -75.656469,
    "zone_id": "",
    "stop_url": "",
    "location_type": 0
  },
  {
    "stop_id": "AI521",
    "stop_code": 9005,
    "stop_name": "HERON / ALTA VISTA",
    "stop_desc": "",
    "stop_lat": 45.379102,
    "stop_lon": -75.660762,
    "zone_id": "",
    "stop_url": "",
    "location_type": 0
  },
  {
    "stop_id": "AI530",
    "stop_code": 7226,
    "stop_name": "HERON / ALTA VISTA",
    "stop_desc": "",
    "stop_lat": 45.378982,
    "stop_lon": -75.660317,
    "zone_id": "",
    "stop_url": "",
    "location_type": 0
  },
  {
    "stop_id": "AJ005",
    "stop_code": 1806,
    "stop_name": "RING ROAD / TOH General Campus",
    "stop_desc": "",
    "stop_lat": 45.39993,
    "stop_lon": -75.648735,
    "zone_id": "",
    "stop_url": "",
    "location_type": 0
  },
  {
    "stop_id": "AJ008",
    "stop_code": 7072,
    "stop_name": "CHEO HOSPITAL",
    "stop_desc": "",
    "stop_lat": 45.399725,
    "stop_lon": -75.651001,
    "zone_id": "",
    "stop_url": "",
    "location_type": 0
  },
  {
    "stop_id": "AJ010",
    "stop_code": 1808,
    "stop_name": "RING ROAD / CHILDRENS HOSPITAL",
    "stop_desc": "",
    "stop_lat": 45.400849,
    "stop_lon": -75.652401,
    "zone_id": "",
    "stop_url": "",
    "location_type": 0
  },
  {
    "stop_id": "AJ015",
    "stop_code": 7231,
    "stop_name": "RING ROAD / RONALD MCDONALD HOUSE",
    "stop_desc": "",
    "stop_lat": 45.402166,
    "stop_lon": -75.653431,
    "zone_id": "",
    "stop_url": "",
    "location_type": 0
  },
  {
    "stop_id": "AJ020",
    "stop_code": 1591,
    "stop_name": "RING ROAD / Rehab (TOH)",
    "stop_desc": "",
    "stop_lat": 45.402968,
    "stop_lon": -75.649785,
    "zone_id": "",
    "stop_url": "",
    "location_type": 0
  },
  {
    "stop_id": "AJ022",
    "stop_code": 7232,
    "stop_name": "RING ROAD",
    "stop_desc": "",
    "stop_lat": 45.403666,
    "stop_lon": -75.64856,
    "zone_id": "",
    "stop_url": "",
    "location_type": 0
  },
  {
    "stop_id": "AJ025",
    "stop_code": 2089,
    "stop_name": "RING ROAD",
    "stop_desc": "",
    "stop_lat": 45.403384,
    "stop_lon": -75.646249,
    "zone_id": "",
    "stop_url": "",
    "location_type": 0
  },
  {
    "stop_id": "AJ028",
    "stop_code": 7233,
    "stop_name": "RING ROAD / CANCER CENTRE",
    "stop_desc": "",
    "stop_lat": 45.40214,
    "stop_lon": -75.645227,
    "zone_id": "",
    "stop_url": "",
    "location_type": 0
  },
  {
    "stop_id": "AJ030",
    "stop_code": 7234,
    "stop_name": "RING ROAD / TOH General Campus",
    "stop_desc": "",
    "stop_lat": 45.400001,
    "stop_lon": -75.647445,
    "zone_id": "",
    "stop_url": "",
    "location_type": 0
  },
  {
    "stop_id": "AJ080",
    "stop_code": 8210,
    "stop_name": "SMYTH / ALTA VISTA",
    "stop_desc": "",
    "stop_lat": 45.398632,
    "stop_lon": -75.661201,
    "zone_id": "",
    "stop_url": "",
    "location_type": 0
  },
  {
    "stop_id": "AJ090",
    "stop_code": 8222,
    "stop_name": "SMYTH / FAIRBANKS",
    "stop_desc": "",
    "stop_lat": 45.398494,
    "stop_lon": -75.659492,
    "zone_id": "",
    "stop_url": "",
    "location_type": 0
  },
  {
    "stop_id": "AJ100",
    "stop_code": 7235,
    "stop_name": "SMYTH / VALOUR",
    "stop_desc": "",
    "stop_lat": 45.398748,
    "stop_lon": -75.658505,
    "zone_id": "",
    "stop_url": "",
    "location_type": 0
  },
  {
    "stop_id": "AJ110",
    "stop_code": 7237,
    "stop_name": "SMYTH / BARNHART",
    "stop_desc": "",
    "stop_lat": 45.398838,
    "stop_lon": -75.654978,
    "zone_id": "",
    "stop_url": "",
    "location_type": 0
  },
  {
    "stop_id": "AJ120",
    "stop_code": 7236,
    "stop_name": "SMYTH / BARNHART",
    "stop_desc": "",
    "stop_lat": 45.398922,
    "stop_lon": -75.65536,
    "zone_id": "",
    "stop_url": "",
    "location_type": 0
  },
  {
    "stop_id": "AJ130",
    "stop_code": 7238,
    "stop_name": "SMYTH / SOUTHHAVEN",
    "stop_desc": "",
    "stop_lat": 45.398927,
    "stop_lon": -75.653569,
    "zone_id": "",
    "stop_url": "",
    "location_type": 0
  },
  {
    "stop_id": "AJ150",
    "stop_code": 7239,
    "stop_name": "SMYTH / HIGHLAND",
    "stop_desc": "",
    "stop_lat": 45.39918,
    "stop_lon": -75.650069,
    "zone_id": "",
    "stop_url": "",
    "location_type": 0
  },
  {
    "stop_id": "AJ180",
    "stop_code": 8565,
    "stop_name": "SMYTH / LYNDA",
    "stop_desc": "",
    "stop_lat": 45.39939,
    "stop_lon": -75.64691,
    "zone_id": "",
    "stop_url": "",
    "location_type": 0
  },
  {
    "stop_id": "AJ190",
    "stop_code": 8564,
    "stop_name": "SMYTH / LYNDA",
    "stop_desc": "",
    "stop_lat": 45.399652,
    "stop_lon": -75.645743,
    "zone_id": "",
    "stop_url": "",
    "location_type": 0
  },
  {
    "stop_id": "AJ200",
    "stop_code": 7244,
    "stop_name": "SMYTH / ROGER GUINDON",
    "stop_desc": "",
    "stop_lat": 45.399886,
    "stop_lon": -75.64224,
    "zone_id": "",
    "stop_url": "",
    "location_type": 0
  },
  {
    "stop_id": "AJ210",
    "stop_code": 7242,
    "stop_name": "SMYTH / ROGER GUINDON",
    "stop_desc": "",
    "stop_lat": 45.399655,
    "stop_lon": -75.642614,
    "zone_id": "",
    "stop_url": "",
    "location_type": 0
  },
  {
    "stop_id": "AJ220",
    "stop_code": 8563,
    "stop_name": "SMYTH / BOTSFORD STREET SOUTH",
    "stop_desc": "",
    "stop_lat": 45.400075,
    "stop_lon": -75.639797,
    "zone_id": "",
    "stop_url": "",
    "location_type": 0
  },
  {
    "stop_id": "AJ230",
    "stop_code": 7243,
    "stop_name": "SMYTH / DAUPHIN",
    "stop_desc": "",
    "stop_lat": 45.399899,
    "stop_lon": -75.639149,
    "zone_id": "",
    "stop_url": "",
    "location_type": 0
  },
  {
    "stop_id": "AJ240",
    "stop_code": 7245,
    "stop_name": "SMYTH / HAIG",
    "stop_desc": "",
    "stop_lat": 45.400417,
    "stop_lon": -75.635104,
    "zone_id": "",
    "stop_url": "",
    "location_type": 0
  },
  {
    "stop_id": "AJ250",
    "stop_code": 8358,
    "stop_name": "SMYTH / HAIG",
    "stop_desc": "",
    "stop_lat": 45.400274,
    "stop_lon": -75.634008,
    "zone_id": "",
    "stop_url": "",
    "location_type": 0
  },
  {
    "stop_id": "AJ260",
    "stop_code": 8568,
    "stop_name": "SMYTH / SAUNDERSON",
    "stop_desc": "",
    "stop_lat": 45.400685,
    "stop_lon": -75.631243,
    "zone_id": "",
    "stop_url": "",
    "location_type": 0
  },
  {
    "stop_id": "AJ270",
    "stop_code": 7246,
    "stop_name": "SMYTH / SAUNDERSON",
    "stop_desc": "",
    "stop_lat": 45.400477,
    "stop_lon": -75.631131,
    "zone_id": "",
    "stop_url": "",
    "location_type": 0
  },
  {
    "stop_id": "AJ280",
    "stop_code": 8356,
    "stop_name": "SMYTH / CUBA",
    "stop_desc": "",
    "stop_lat": 45.40088,
    "stop_lon": -75.628506,
    "zone_id": "",
    "stop_url": "",
    "location_type": 0
  },
  {
    "stop_id": "AJ290",
    "stop_code": 8360,
    "stop_name": "SMYTH / CUBA",
    "stop_desc": "",
    "stop_lat": 45.400672,
    "stop_lon": -75.628369,
    "zone_id": "",
    "stop_url": "",
    "location_type": 0
  },
  {
    "stop_id": "AJ300",
    "stop_code": 8351,
    "stop_name": "SMYTH / RUSSELL",
    "stop_desc": "",
    "stop_lat": 45.400972,
    "stop_lon": -75.626333,
    "zone_id": "",
    "stop_url": "",
    "location_type": 0
  },
  {
    "stop_id": "AJ310",
    "stop_code": 7247,
    "stop_name": "SMYTH / OTHELLO",
    "stop_desc": "",
    "stop_lat": 45.400843,
    "stop_lon": -75.626016,
    "zone_id": "",
    "stop_url": "",
    "location_type": 0
  },
  {
    "stop_id": "AJ320",
    "stop_code": 8239,
    "stop_name": "PLEASANT PARK / ALTA VISTA",
    "stop_desc": "",
    "stop_lat": 45.393179,
    "stop_lon": -75.662457,
    "zone_id": "",
    "stop_url": "",
    "location_type": 0
  },
  {
    "stop_id": "AJ330",
    "stop_code": 7248,
    "stop_name": "PLEASANT PARK / AD. 327",
    "stop_desc": "",
    "stop_lat": 45.393399,
    "stop_lon": -75.659261,
    "zone_id": "",
    "stop_url": "",
    "location_type": 0
  },
  {
    "stop_id": "AJ340",
    "stop_code": 8243,
    "stop_name": "PLEASANT PARK / AD. 328",
    "stop_desc": "",
    "stop_lat": 45.393228,
    "stop_lon": -75.659212,
    "zone_id": "",
    "stop_url": "",
    "location_type": 0
  },
  {
    "stop_id": "AJ350",
    "stop_code": 7251,
    "stop_name": "PLEASANT PARK / FAIRBANKS",
    "stop_desc": "",
    "stop_lat": 45.393577,
    "stop_lon": -75.656589,
    "zone_id": "",
    "stop_url": "",
    "location_type": 0
  },
  {
    "stop_id": "AJ360",
    "stop_code": 7249,
    "stop_name": "PLEASANT PARK / FAIRBANKS",
    "stop_desc": "",
    "stop_lat": 45.393497,
    "stop_lon": -75.65553,
    "zone_id": "",
    "stop_url": "",
    "location_type": 0
  },
  {
    "stop_id": "AJ370",
    "stop_code": 8238,
    "stop_name": "PLEASANT PARK / AD. 433",
    "stop_desc": "",
    "stop_lat": 45.393773,
    "stop_lon": -75.653866,
    "zone_id": "",
    "stop_url": "",
    "location_type": 0
  },
  {
    "stop_id": "AJ380",
    "stop_code": 7250,
    "stop_name": "PLEASANT PARK / AD. 452",
    "stop_desc": "",
    "stop_lat": 45.393703,
    "stop_lon": -75.652896,
    "zone_id": "",
    "stop_url": "",
    "location_type": 0
  },
  {
    "stop_id": "AJ390",
    "stop_code": 7252,
    "stop_name": "PLEASANT PARK / AD. 501",
    "stop_desc": "",
    "stop_lat": 45.393972,
    "stop_lon": -75.650325,
    "zone_id": "",
    "stop_url": "",
    "location_type": 0
  },
  {
    "stop_id": "AJ400",
    "stop_code": 8244,
    "stop_name": "PLEASANT PARK / AD. 504",
    "stop_desc": "",
    "stop_lat": 45.393889,
    "stop_lon": -75.650109,
    "zone_id": "",
    "stop_url": "",
    "location_type": 0
  },
  {
    "stop_id": "AJ410",
    "stop_code": 7253,
    "stop_name": "PLEASANT PARK / LYNDA",
    "stop_desc": "",
    "stop_lat": 45.394198,
    "stop_lon": -75.648099,
    "zone_id": "",
    "stop_url": "",
    "location_type": 0
  },
  {
    "stop_id": "AJ420",
    "stop_code": 7255,
    "stop_name": "PLEASANT PARK / LYNDA",
    "stop_desc": "",
    "stop_lat": 45.394094,
    "stop_lon": -75.647411,
    "zone_id": "",
    "stop_url": "",
    "location_type": 0
  },
  {
    "stop_id": "AJ430",
    "stop_code": 7254,
    "stop_name": "PLEASANT PARK / NORWAY",
    "stop_desc": "",
    "stop_lat": 45.394392,
    "stop_lon": -75.64512,
    "zone_id": "",
    "stop_url": "",
    "location_type": 0
  },
  {
    "stop_id": "AJ440",
    "stop_code": 7256,
    "stop_name": "PLEASANT PARK / NORWAY",
    "stop_desc": "",
    "stop_lat": 45.394239,
    "stop_lon": -75.645123,
    "zone_id": "",
    "stop_url": "",
    "location_type": 0
  },
  {
    "stop_id": "AK090",
    "stop_code": 8338,
    "stop_name": "PLEASANT PARK / DORVAL",
    "stop_desc": "",
    "stop_lat": 45.393733,
    "stop_lon": -75.640009,
    "zone_id": "",
    "stop_url": "",
    "location_type": 0
  },
  {
    "stop_id": "AK100",
    "stop_code": 8335,
    "stop_name": "PLEASANT PARK / DORVAL",
    "stop_desc": "",
    "stop_lat": 45.393651,
    "stop_lon": -75.63992,
    "zone_id": "",
    "stop_url": "",
    "location_type": 0
  },
  {
    "stop_id": "AK110",
    "stop_code": 7268,
    "stop_name": "PLEASANT PARK / HAIG",
    "stop_desc": "",
    "stop_lat": 45.39387,
    "stop_lon": -75.63675,
    "zone_id": "",
    "stop_url": "",
    "location_type": 0
  },
  {
    "stop_id": "AK120",
    "stop_code": 8337,
    "stop_name": "PLEASANT PARK / HAIG",
    "stop_desc": "",
    "stop_lat": 45.394072,
    "stop_lon": -75.636146,
    "zone_id": "",
    "stop_url": "",
    "location_type": 0
  },
  {
    "stop_id": "AK130",
    "stop_code": 8336,
    "stop_name": "PLEASANT PARK / CAMROSE",
    "stop_desc": "",
    "stop_lat": 45.394124,
    "stop_lon": -75.633502,
    "zone_id": "",
    "stop_url": "",
    "location_type": 0
  },
  {
    "stop_id": "AK140",
    "stop_code": 7269,
    "stop_name": "PLEASANT PARK / CAMROSE",
    "stop_desc": "",
    "stop_lat": 45.394292,
    "stop_lon": -75.633142,
    "zone_id": "",
    "stop_url": "",
    "location_type": 0
  },
  {
    "stop_id": "AK145",
    "stop_code": 6915,
    "stop_name": "PLEASANT PARK / ARCH",
    "stop_desc": "",
    "stop_lat": 45.394237,
    "stop_lon": -75.631725,
    "zone_id": "",
    "stop_url": "",
    "location_type": 0
  },
  {
    "stop_id": "AK151",
    "stop_code": 3329,
    "stop_name": "PLEASANT PARK / ARCH",
    "stop_desc": "",
    "stop_lat": 45.39439,
    "stop_lon": -75.631799,
    "zone_id": "",
    "stop_url": "",
    "location_type": 0
  },
  {
    "stop_id": "AK155",
    "stop_code": 6918,
    "stop_name": "PLEASANT PARK / SAUNDERSON",
    "stop_desc": "",
    "stop_lat": 45.394537,
    "stop_lon": -75.627441,
    "zone_id": "",
    "stop_url": "",
    "location_type": 0
  },
  {
    "stop_id": "AK160",
    "stop_code": 7071,
    "stop_name": "PLEASANT PARK / SAUNDERSON",
    "stop_desc": "",
    "stop_lat": 45.394721,
    "stop_lon": -75.626775,
    "zone_id": "",
    "stop_url": "",
    "location_type": 0
  },
  {
    "stop_id": "AK360",
    "stop_code": 8340,
    "stop_name": "CANTERBURY / HALIFAX",
    "stop_desc": "",
    "stop_lat": 45.389434,
    "stop_lon": -75.626192,
    "zone_id": "",
    "stop_url": "",
    "location_type": 0
  },
  {
    "stop_id": "AK370",
    "stop_code": 8345,
    "stop_name": "CANTERBURY / PLESSER",
    "stop_desc": "",
    "stop_lat": 45.389386,
    "stop_lon": -75.626921,
    "zone_id": "",
    "stop_url": "",
    "location_type": 0
  },